name,address,state_x,postal_x,source_x,lat,lng,source_date_x,googleMapsUrl_x,county,googleMapsUrl_y,state_y,postal_y,source_y,source_date_y,_merge
HOLYOKE HEALTH CENTER INC,"505 FRONT STREET, CHICOPEE, MA 01013",MA,1013.0,DEA,42.148087,-72.59758000000002,Dec2018,http://maps.google.com/maps?q=HOLYOKE%20HEALTH%20CENTER%20INC%2C505%20FRONT%20STREET%2C+CHICOPEE%2C+MA+01013,Hampden,,,,,,left_only
"CVS PHARMACY, INC.","1616 MEMORIAL DR., CHICOPEE, MA 01020",MA,1020.0,DEA,42.200012,-72.57292,Dec2018,http://maps.google.com/maps?q=CVS%20PHARMACY%20INC%2C1616%20MEMORIAL%20DR.%2C+CHICOPEE%2C+MA+01020,Hampden,,,,,,left_only
"HOLYOKE HEALTH CENTER, INC.","PHARMACY DEPARTMENT, 230 MAPLE STREET, HOLYOKE, MA 01040",MA,1040.0,DEA,42.2071708,-72.6086105,Dec2018,http://maps.google.com/maps?q=HOLYOKE%20HEALTH%20CENTER%20INC%2CPHARMACY%20DEPARTMENT%2C+HOLYOKE%2C+MA+01040,Hampden,,,,,,left_only
"CVS PHARMACY, INC.","615-621 BELMONT AVENUE, SPRINGFIELD, MA 01108",MA,1108.0,DEA,42.088091,-72.569614,Dec2018,http://maps.google.com/maps?q=CVS%20PHARMACY%20INC%2C615-621%20BELMONT%20AVENUE%2C+SPRINGFIELD%2C+MA+01108,Hampden,,,,,,left_only
"WALGREEN EASTERN CO., INC.","501 SUMNER AVENUE, SPRINGFIELD, MA 01108",MA,1108.0,DEA,42.086056,-72.55819,Dec2018,http://maps.google.com/maps?q=WALGREEN%20EASTERN%20CO%20INC%2C501%20SUMNER%20AVENUE%2C+SPRINGFIELD%2C+MA+01108,Hampden,,,,,,left_only
"CVS PHARMACY, INC.","600 STATE ST, SPRINGFIELD, MA 01109",MA,1109.0,DEA,42.109787,-72.57208,Dec2018,http://maps.google.com/maps?q=CVS%20PHARMACY%20INC%2C600%20STATE%20ST%2C+SPRINGFIELD%2C+MA+01109,Hampden,,,,,,left_only
BAYSTATE MEDICAL CENTER INC,"759 CHESTNUT ST, SPRINGFIELD, MA 01199",MA,1199.0,DEA,42.121864,-72.60290400000002,Dec2018,http://maps.google.com/maps?q=BAYSTATE%20MEDICAL%20CENTER%20INC%2C759%20CHESTNUT%20ST%2C+SPRINGFIELD%2C+MA+01199,Hampden,,,,,,left_only
T C FLYNN PHARMACY,"173 ELM ST, PITTSFIELD, MA 01201",MA,1201.0,DEA,42.443882,-73.23778,Dec2018,http://maps.google.com/maps?q=T%20C%20FLYNN%20PHARMACY%2C173%20ELM%20ST%2C+PITTSFIELD%2C+MA+01201,Berkshire,,,,,,left_only
"CVS PHARMACY, INC.","137 FEDERAL STREET, GREENFIELD, MA 01301",MA,1301.0,DEA,42.590626,-72.59879000000002,Dec2018,http://maps.google.com/maps?q=CVS%20PHARMACY%20INC%2C137%20FEDERAL%20STREET%2C+GREENFIELD%2C+MA+01301,Franklin,,,,,,left_only
"CVS PHARMACY, INC.","314 MAIN STREET, GARDNER, MA 01440",MA,1440.0,DEA,42.57025,-71.99335500000002,Dec2018,http://maps.google.com/maps?q=CVS%20PHARMACY%20INC%2C314%20MAIN%20STREET%2C+GARDNER%2C+MA+01440,Worcester,http://maps.google.com/maps?q=CVS%20PHARMACY%20INC%2C314%20MAIN%20STREET%2C+GARDNER%2C+MA+01440,MA,1440.0,DEA,Oct2018,both
"CVS PHARMACY, INC.","9 NELSON STREET, LEOMINSTER, MA 01453",MA,1453.0,DEA,42.542496,-71.76133,Dec2018,http://maps.google.com/maps?q=CVS%20PHARMACY%20INC%2C9%20NELSON%20STREET%2C+LEOMINSTER%2C+MA+01453,Worcester,http://maps.google.com/maps?q=CVS%20PHARMACY%20INC%2C9%20NELSON%20STREET%2C+LEOMINSTER%2C+MA+01453,MA,1453.0,DEA,Oct2018,both
"CVS PHARMACY, INC.","197 BOSTON TURNPIKE RTE 9, SHREWSBURY, MA 01545",MA,1545.0,DEA,42.2746817,-71.7460745,Dec2018,http://maps.google.com/maps?q=CVS%20PHARMACY%20INC%2C197%20BOSTON%20TURNPIKE%20RTE%209%2C+SHREWSBURY%2C+MA+01545,Worcester,,,,,,left_only
"WESTBOROUGH BEHAVIORAL HEALTHCARE HOSPITAL, LLC","300 FRIBERG PARKWAY, WESTBOROUGH, MA 01581",MA,1581.0,DEA,42.2841877412,-71.5839766074,April2018,http://maps.google.com/maps?q=WESTBOROUGH%20BEHAVIORAL%20HEALTHCARE%20HOSPITAL%20LLC%2C300%20FRIBERG%20PARKWAY%2C+WESTBOROUGH%2C+MA+01581,Worcester,http://maps.google.com/maps?q=WESTBOROUGH%20BEHAVIORAL%20HEALTHCARE%20HOSPITAL%20LLC%2C300%20FRIBERG%20PARKWAY%2C+WESTBOROUGH%2C+MA+01581,MA,1581.0,DEA,Oct2018,both
"CVS PHARMACY, INC.","115 STAFFORD ST., WORCESTER, MA 01603",MA,1603.0,DEA,42.238577,-71.844559,Dec2018,http://maps.google.com/maps?q=CVS%20PHARMACY%20INC%2C115%20STAFFORD%20ST.%2C+WORCESTER%2C+MA+01603,Worcester,,,,,,left_only
"CVS PHARMACY, INC.","500 GRAFTON STREET, WORCESTER, MA 01604",MA,1604.0,DEA,42.25082800000001,-71.78043000000002,Dec2018,http://maps.google.com/maps?q=CVS%20PHARMACY%20INC%2C500%20GRAFTON%20STREET%2C+WORCESTER%2C+MA+01604,Worcester,http://maps.google.com/maps?q=CVS%20PHARMACY%20INC%2C500%20GRAFTON%20STREET%2C+WORCESTER%2C+MA+01604,MA,1604.0,DEA,Oct2018,both
"CVS PHARMACY, INC.","400 PARK AVE., WORCESTER, MA 01610",MA,1610.0,DEA,42.256702,-71.82347,Dec2018,http://maps.google.com/maps?q=CVS%20PHARMACY%20INC%2C400%20PARK%20AVE.%2C+WORCESTER%2C+MA+01610,Worcester,http://maps.google.com/maps?q=CVS%20PHARMACY%20INC%2C400%20PARK%20AVE.%2C+WORCESTER%2C+MA+01610,MA,1610.0,DEA,Oct2018,both
"WALGREEN EASTERN CO., INC.","320 PARK AVE, WORCESTER, MA 01610",MA,1610.0,DEA,42.261173,-71.82139699999998,Dec2018,http://maps.google.com/maps?q=WALGREEN%20EASTERN%20CO%20INC%2C320%20PARK%20AVE%2C+WORCESTER%2C+MA+01610,Worcester,http://maps.google.com/maps?q=WALGREEN%20EASTERN%20CO%20INC%2C320%20PARK%20AVE%2C+WORCESTER%2C+MA+01610,MA,1610.0,DEA,Oct2018,both
"WALGREEN EASTERN CO., INC.","653 WORCESTER RD, FRAMINGHAM, MA 01701",MA,1701.0,DEA,42.29818,-71.42319499999998,Dec2018,http://maps.google.com/maps?q=WALGREEN%20EASTERN%20CO%20INC%2C653%20WORCESTER%20RD%2C+FRAMINGHAM%2C+MA+01701,Middlesex,http://maps.google.com/maps?q=WALGREEN%20EASTERN%20CO%20INC%2C653%20WORCESTER%20RD%2C+FRAMINGHAM%2C+MA+01701,MA,1701.0,DEA,Oct2018,both
"CVS PHARMACY, INC.","1280 WORCESTER RD., FRAMINGHAM, MA 01702",MA,1702.0,DEA,42.297886,-71.44966,Dec2018,http://maps.google.com/maps?q=CVS%20PHARMACY%20INC%2C1280%20WORCESTER%20RD.%2C+FRAMINGHAM%2C+MA+01702,Middlesex,,,,,,left_only
"CVS PHARMACY, INC.","400 MASSACHUSETTS AVENUE, ACTON, MA 01720",MA,1720.0,DEA,42.474815,-71.453384,Dec2018,http://maps.google.com/maps?q=CVS%20PHARMACY%20INC%2C400%20MASSACHUSETTS%20AVENUE%2C+ACTON%2C+MA+01720,Middlesex,http://maps.google.com/maps?q=CVS%20PHARMACY%20INC%2C400%20MASSACHUSETTS%20AVENUE%2C+ACTON%2C+MA+01720,MA,1720.0,DEA,Oct2018,both
USAF-66TH MEDICAL SQUADRON/SGSM,"90 VANDENBERG DRIVE BLDG 1900, HANSCOM AFB, MA 01731",MA,1731.0,DEA,42.458399,-71.283826,Dec2018,http://maps.google.com/maps?q=USAFTH%20MEDICAL%20SQUADRONSGSM%2C90%20VANDENBERG%20DRIVE%20BLDG%201900%2C+HANSCOM%20AFB%2C+MA+01731,Middlesex,http://maps.google.com/maps?q=USAFTH%20MEDICAL%20SQUADRONSGSM%2C90%20VANDENBERG%20DRIVE%20BLDG%201900%2C+HANSCOM%20AFB%2C+MA+01731,MA,1731.0,DEA,Oct2018,both
"CVS PHARMACY, INC.","264 EAST MAIN STREET, MARLBORO, MA 01752",MA,1752.0,DEA,42.351196,-71.534706,Dec2018,http://maps.google.com/maps?q=CVS%20PHARMACY%20INC%2C264%20EAST%20MAIN%20STREET%2C+MARLBORO%2C+MA+01752,Middlesex,http://maps.google.com/maps?q=CVS%20PHARMACY%20INC%2C264%20EAST%20MAIN%20STREET%2C+MARLBORO%2C+MA+01752,MA,1752.0,DEA,Oct2018,both
"CVS PHARMACY, INC.","137 SOUTH MAIN STREET, MILFORD, MA 01757",MA,1757.0,DEA,42.14927,-71.50702,Dec2018,http://maps.google.com/maps?q=CVS%20PHARMACY%20INC%2C137%20SOUTH%20MAIN%20STREET%2C+MILFORD%2C+MA+01757,Worcester,,,,,,left_only
"CVS PHARMACY, INC.","137 WEST CENTRAL STREET, NATICK, MA 01760",MA,1760.0,DEA,42.282642,-71.37508000000003,Dec2018,http://maps.google.com/maps?q=CVS%20PHARMACY%20INC%2C137%20WEST%20CENTRAL%20STREET%2C+NATICK%2C+MA+01760,Middlesex,,,,,,left_only
LAHEY CLINIC HOSPITAL INC,"C/O PHARMACY DEPT, 41 MALL RD, BURLINGTON, MA 01805",MA,1805.0,DEA,42.4868368,-71.2063864,Dec2018,http://maps.google.com/maps?q=LAHEY%20CLINIC%20HOSPITAL%20INC%2CC/O%20PHARMACY%20DEPT%2C+BURLINGTON%2C+MA+01805,Middlesex,http://maps.google.com/maps?q=LAHEY%20CLINIC%20HOSPITAL%20INC%2CC/O%20PHARMACY%20DEPT%2C+BURLINGTON%2C+MA+01805,MA,1805.0,DEA,Oct2018,both
"CVS PHARMACY, INC.","68 MAIN STREET, ANDOVER, MA 01810",MA,1810.0,DEA,42.655113,-71.13956,Dec2018,http://maps.google.com/maps?q=CVS%20PHARMACY%20INC%2C68%20MAIN%20STREET%2C+ANDOVER%2C+MA+01810,Essex,http://maps.google.com/maps?q=CVS%20PHARMACY%20INC%2C68%20MAIN%20STREET%2C+ANDOVER%2C+MA+01810,MA,1810.0,DEA,Oct2018,both
"CVS PHARMACY, INC.","425 LOWELL AVE., HAVERHILL, MA 01832",MA,1832.0,DEA,42.772804,-71.11607,Dec2018,http://maps.google.com/maps?q=CVS%20PHARMACY%20INC%2C425%20LOWELL%20AVE.%2C+HAVERHILL%2C+MA+01832,Essex,http://maps.google.com/maps?q=CVS%20PHARMACY%20INC%2C425%20LOWELL%20AVE.%2C+HAVERHILL%2C+MA+01832,MA,1832.0,DEA,Oct2018,both
"CVS PHARMACY, INC.","336 BRIDGE ST., LOWELL, MA 01850",MA,1850.0,DEA,42.649525,-71.30409,Dec2018,http://maps.google.com/maps?q=CVS%20PHARMACY%20INC%2C336%20BRIDGE%20ST.%2C+LOWELL%2C+MA+01850,Middlesex,http://maps.google.com/maps?q=CVS%20PHARMACY%20INC%2C336%20BRIDGE%20ST.%2C+LOWELL%2C+MA+01850,MA,1850.0,DEA,Oct2018,both
"CVS PHARMACY, INC.","1815 MIDDLESEX STREET, LOWELL, MA 01851",MA,1851.0,DEA,42.634876,-71.35476,Dec2018,http://maps.google.com/maps?q=CVS%20PHARMACY%20INC%2C1815%20MIDDLESEX%20STREET%2C+LOWELL%2C+MA+01851,Middlesex,,,,,,left_only
"WALGREEN EASTERN CO., INC.","54 PLAIN ST, LOWELL, MA 01851",MA,1851.0,DEA,42.626425,-71.3222407,Dec2018,http://maps.google.com/maps?q=WALGREEN%20EASTERN%20CO%20INC%2C54%20PLAIN%20ST%2C+LOWELL%2C+MA+01851,Middlesex,http://maps.google.com/maps?q=WALGREEN%20EASTERN%20CO%20INC%2C54%20PLAIN%20ST%2C+LOWELL%2C+MA+01851,MA,1851.0,DEA,Oct2018,both
BEVERLY HOSPITAL,"C/O PHARMACY DEPT, 85 HERRICK ST, BEVERLY, MA 01915",MA,1915.0,DEA,42.5765964,-70.8919377,Dec2018,http://maps.google.com/maps?q=BEVERLY%20HOSPITAL%2CC/O%20PHARMACY%20DEPT%2C+BEVERLY%2C+MA+01915,Essex,,,,,,left_only
"CVS PHARMACY, INC.","19 DODGE ST., BEVERLY, MA 01915",MA,1915.0,DEA,42.573723,-70.89262,Dec2018,http://maps.google.com/maps?q=CVS%20PHARMACY%20INC%2C19%20DODGE%20ST.%2C+BEVERLY%2C+MA+01915,Essex,,,,,,left_only
"WALGREEN EASTERN CO., INC.","201 MAIN STREET, GLOUCESTER, MA 01930",MA,1930.0,DEA,42.613136,-70.660774,Dec2018,http://maps.google.com/maps?q=WALGREEN%20EASTERN%20CO%20INC%2C201%20MAIN%20STREET%2C+GLOUCESTER%2C+MA+01930,Essex,http://maps.google.com/maps?q=WALGREEN%20EASTERN%20CO%20INC%2C201%20MAIN%20STREET%2C+GLOUCESTER%2C+MA+01930,MA,1930.0,DEA,Oct2018,both
"CVS PHARMACY, INC.","13-1/2 POND STREET, NEWBURYPORT, MA 01950",MA,1950.0,DEA,42.80738,-70.872955,Dec2018,http://maps.google.com/maps?q=CVS%20PHARMACY%20INC%2C13-1/2%20POND%20STREET%2C+NEWBURYPORT%2C+MA+01950,Essex,,,,,,left_only
"CVS PHARMACY, INC.","272 EAST CENTRAL STREET, ROUTE 140, FRANKLIN, MA 02038",MA,2038.0,DEA,42.08039,-71.38544499999998,Dec2018,http://maps.google.com/maps?q=CVS%20PHARMACY%20INC%2C272%20EAST%20CENTRAL%20STREET%2C%20ROUTE%20140%2C+FRANKLIN%2C+MA+02038,Norfolk,http://maps.google.com/maps?q=CVS%20PHARMACY%20INC%2C272%20EAST%20CENTRAL%20STREET%2C%20ROUTE%20140%2C+FRANKLIN%2C+MA+02038,MA,2038.0,DEA,Oct2018,both
"CVS PHARMACY, INC.","261 CHAUNCY STREET, MANSFIELD, MA 02048",MA,2048.0,DEA,42.0311065,-71.23071170000001,Dec2018,http://maps.google.com/maps?q=CVS%20PHARMACY%20INC%2C261%20CHAUNCY%20STREET%2C+MANSFIELD%2C+MA+02048,Bristol,http://maps.google.com/maps?q=CVS%20PHARMACY%20INC%2C261%20CHAUNCY%20STREET%2C+MANSFIELD%2C+MA+02048,MA,2048.0,DEA,Oct2018,both
"CVS PHARMACY, INC.","1880 OCEAN STREET, MARSHFIELD, MA 02050",MA,2050.0,DEA,42.09201,-70.704475,Dec2018,http://maps.google.com/maps?q=CVS%20PHARMACY%20INC%2C1880%20OCEAN%20STREET%2C+MARSHFIELD%2C+MA+02050,Plymouth,,,,,,left_only
"CVS PHARMACY, INC.","136 NAHATAN ST., NORWOOD, MA 02062",MA,2062.0,DEA,42.195,-71.20065,Dec2018,http://maps.google.com/maps?q=CVS%20PHARMACY%20INC%2C136%20NAHATAN%20ST.%2C+NORWOOD%2C+MA+02062,Norfolk,,,,,,left_only
"WALGREEN EASTERN CO., INC.","413 WASHINGTON STREET, STOUGHTON, MA 02072",MA,2072.0,DEA,42.134983,-71.1017,Dec2018,http://maps.google.com/maps?q=WALGREEN%20EASTERN%20CO%20INC%2C413%20WASHINGTON%20STREET%2C+STOUGHTON%2C+MA+02072,Norfolk,,,,,,left_only
GENERAL HOSPITAL CORPORATION,"OUTPATIENT PHARMACY, 55 FRUIT STREET, BOSTON, MA 02114",MA,2114.0,DEA,42.36311720000001,-71.0686446,Dec2018,http://maps.google.com/maps?q=GENERAL%20HOSPITAL%20CORPORATION%2COUTPATIENT%20PHARMACY%2C+BOSTON%2C+MA+02114,Suffolk,,,,,,left_only
MASS EYE & EAR INFIRMARY,"243 CHARLES STREET, BOSTON, MA 02114",MA,2114.0,DEA,42.36255,-71.070656,Dec2018,http://maps.google.com/maps?q=MASS%20EYE%20%20EAR%20INFIRMARY%2C243%20CHARLES%20STREET%2C+BOSTON%2C+MA+02114,Suffolk,,,,,,left_only
THE GENERAL HOSP CORPORATION,"DELIVER ONLY TO THE, DIRECTOR OF PHARMACY, BOSTON, MA 02114",MA,2114.0,DEA,42.36,-71.07,Dec2018,http://maps.google.com/maps?q=THE%20GENERAL%20HOSP%20CORPORATION%2CDELIVER%20ONLY%20TO%20THE%2C+BOSTON%2C+MA+02114,Suffolk,,,,,,left_only
BRIGHAM AND WOMEN'S HOSPITAL,"75 FRANCIS STREET, DEPT OF PHARMACY TWR L2-504, BOSTON, MA 02115",MA,2115.0,DEA,42.3360919,-71.10670470000002,Dec2018,http://maps.google.com/maps?q=BRIGHAM%20AND%20WOMENS%20HOSPITAL%2C75%20FRANCIS%20STREET%2C+BOSTON%2C+MA+02115,Suffolk,,,,,,left_only
BOSTON MEDICAL CENTER,"MENINO CAMPUS, 840 HARRISON AVE, BOSTON, MA 02118",MA,2118.0,DEA,42.33481210000001,-71.0733775,Dec2018,http://maps.google.com/maps?q=BOSTON%20MEDICAL%20CENTER%2CMENINO%20CAMPUS%2C+BOSTON%2C+MA+02118,Suffolk,,,,,,left_only
BOSTON MEDICAL CENTER PHARMACY AT SHAPIRO,"725 ALBANY STREET, PHARMACY, BOSTON, MA 02118",MA,2118.0,DEA,42.335518,-71.0707,Dec2018,http://maps.google.com/maps?q=BOSTON%20MEDICAL%20CENTER%20PHARMACY%20AT%20SHAPIRO%2C725%20ALBANY%20STREET%2C+BOSTON%2C+MA+02118,Suffolk,,,,,,left_only
"WALGREEN EASTERN CO., INC.","416 WARREN ST, ROXBURY, MA 02119",MA,2119.0,DEA,42.317284,-71.08232,Dec2018,http://maps.google.com/maps?q=WALGREEN%20EASTERN%20CO%20INC%2C416%20WARREN%20ST%2C+ROXBURY%2C+MA+02119,Suffolk,http://maps.google.com/maps?q=WALGREEN%20EASTERN%20CO%20INC%2C416%20WARREN%20ST%2C+ROXBURY%2C+MA+02119,MA,2119.0,DEA,Oct2018,both
"CVS PHARMACY, INC.","715 MORRISSEY BOULEVARD, DORCHESTER, MA 02122",MA,2122.0,DEA,42.2973755,-71.04981219999998,Dec2018,http://maps.google.com/maps?q=CVS%20PHARMACY%20INC%2C715%20MORRISSEY%20BOULEVARD%2C+DORCHESTER%2C+MA+02122,Suffolk,http://maps.google.com/maps?q=CVS%20PHARMACY%20INC%2C715%20MORRISSEY%20BOULEVARD%2C+DORCHESTER%2C+MA+02122,MA,2122.0,DEA,Oct2018,both
"WALGREEN EASTERN CO., INC.","1 KELLY SQUARE, EAST BOSTON, MA 02128",MA,2128.0,DEA,42.3742253,-71.03884120000002,Dec2018,http://maps.google.com/maps?q=WALGREEN%20EASTERN%20CO%20INC%2C1%20KELLY%20SQUARE%2C+EAST%20BOSTON%2C+MA+02128,Suffolk,,,,,,left_only
THE ARBOUR HOSPITAL,"49 ROBINWOOD AVE, JAMAICA PLAIN, MA 02130",MA,2130.0,DEA,42.31577125,-71.11233044069999,April2018,http://maps.google.com/maps?q=THE%20ARBOUR%20HOSPITAL%2C49%20ROBINWOOD%20AVE%2C+JAMAICA%20PLAIN%2C+MA+02130,Suffolk,http://maps.google.com/maps?q=THE%20ARBOUR%20HOSPITAL%2C49%20ROBINWOOD%20AVE%2C+JAMAICA%20PLAIN%2C+MA+02130,MA,2130.0,DEA,Oct2018,both
HARVARD UNIVERSITY HEALTH SERVICES,"75 MT AUBURN ST, CAMBRIDGE, MA 02138",MA,2138.0,DEA,42.3747032,-71.1305838,April2018,http://maps.google.com/maps?q=HARVARD%20UNIVERSITY%20HEALTH%20SERVICES%2C75%20MT%20AUBURN%20ST%2C+CAMBRIDGE%2C+MA+02138,Middlesex,,,,,,left_only
"CVS PHARMACY, INC.","36 WHITE STREET, CAMBRIDGE, MA 02140",MA,2140.0,DEA,42.388866,-71.11775,Dec2018,http://maps.google.com/maps?q=CVS%20PHARMACY%20INC%2C36%20WHITE%20STREET%2C+CAMBRIDGE%2C+MA+02140,Middlesex,,,,,,left_only
"WALGREEN EASTERN CO., INC.","185 CENTRE STREET, MALDEN, MA 02148",MA,2148.0,DEA,42.425583,-71.07302,Dec2018,http://maps.google.com/maps?q=WALGREEN%20EASTERN%20CO%20INC%2C185%20CENTRE%20STREET%2C+MALDEN%2C+MA+02148,Middlesex,,,,,,left_only
REVERE HEALTHCARE CENTER,"CLINIC PHARMACY, 300 OCEAN AVENUE, REVERE, MA 02151",MA,2151.0,DEA,42.408074,-70.992325,Dec2018,http://maps.google.com/maps?q=REVERE%20HEALTHCARE%20CENTER%2CCLINIC%20PHARMACY%2C+REVERE%2C+MA+02151,Suffolk,http://maps.google.com/maps?q=REVERE%20HEALTHCARE%20CENTER%2CCLINIC%20PHARMACY%2C+REVERE%2C+MA+02151,MA,2151.0,DEA,Oct2018,both
"CVS PHARMACY, INC.","590 FELLSWAY, MEDFORD, MA 02155",MA,2155.0,DEA,42.40671500000001,-71.08219,Dec2018,http://maps.google.com/maps?q=CVS%20PHARMACY%20INC%2C590%20FELLSWAY%2C+MEDFORD%2C+MA+02155,Middlesex,http://maps.google.com/maps?q=CVS%20PHARMACY%20INC%2C590%20FELLSWAY%2C+MEDFORD%2C+MA+02155,MA,2155.0,DEA,Oct2018,both
"CVS PHARMACY, INC.","626 SOUTHERN ARTERY, RTE 3A, QUINCY, MA 02169",MA,2169.0,DEA,42.2526918,-70.9878369,Dec2018,http://maps.google.com/maps?q=CVS%20PHARMACY%20INC%2C626%20SOUTHERN%20ARTERY%2C%20RTE%203A%2C+QUINCY%2C+MA+02169,Norfolk,,,,,,left_only
"WALGREEN EASTERN CO., INC.","418 QUINCY AVENUE, QUINCY, MA 02169",MA,2169.0,DEA,42.23903189999999,-70.9831152,Dec2018,http://maps.google.com/maps?q=WALGREEN%20EASTERN%20CO%20INC%2C418%20QUINCY%20AVENUE%2C+QUINCY%2C+MA+02169,Norfolk,http://maps.google.com/maps?q=WALGREEN%20EASTERN%20CO%20INC%2C418%20QUINCY%20AVENUE%2C+QUINCY%2C+MA+02169,MA,2169.0,DEA,Oct2018,both
"CVS PHARMACY, INC.","42 BEALE STREET, WOLLASTON, MA 02170",MA,2170.0,DEA,42.26665,-71.01776,Dec2018,http://maps.google.com/maps?q=CVS%20PHARMACY%20INC%2C42%20BEALE%20STREET%2C+WOLLASTON%2C+MA+02170,Norfolk,http://maps.google.com/maps?q=CVS%20PHARMACY%20INC%2C42%20BEALE%20STREET%2C+WOLLASTON%2C+MA+02170,MA,2170.0,DEA,Oct2018,both
"WALGREEN EASTERN CO., INC.","225 MAIN ST., STONEHAM, MA 02180",MA,2180.0,DEA,42.48683,-71.100105,Dec2018,http://maps.google.com/maps?q=WALGREEN%20EASTERN%20CO%20INC%2C225%20MAIN%20ST.%2C+STONEHAM%2C+MA+02180,Middlesex,,,,,,left_only
"CVS PHARMACY, INC.","474 WASHINGTON ST., WEYMOUTH, MA 02188",MA,2188.0,DEA,42.20813,-70.95748,Dec2018,http://maps.google.com/maps?q=CVS%20PHARMACY%20INC%2C474%20WASHINGTON%20ST.%2C+WEYMOUTH%2C+MA+02188,Norfolk,http://maps.google.com/maps?q=CVS%20PHARMACY%20INC%2C474%20WASHINGTON%20ST.%2C+WEYMOUTH%2C+MA+02188,MA,2188.0,DEA,Oct2018,both
SOUTH SHORE HOSPITAL,"KRISTOPHER YOUNG PHARMD, 55 FOGG ROAD, SOUTH WEYMOUTH, MA 02190",MA,2190.0,DEA,42.175691,-70.954074,Dec2018,http://maps.google.com/maps?q=SOUTH%20SHORE%20HOSPITAL%2CKRISTOPHER%20YOUNG%20PHARMD%2C+SOUTH%20WEYMOUTH%2C+MA+02190,Norfolk,,,,,,left_only
"CVS PHARMACY, INC.","1267 MAIN STREET, BROCKTON, MA 02301",MA,2301.0,DEA,42.0603,-71.014336,Dec2018,http://maps.google.com/maps?q=CVS%20PHARMACY%20INC%2C1267%20MAIN%20STREET%2C+BROCKTON%2C+MA+02301,Plymouth,,,,,,left_only
"BETH ISRAEL DEACONESS HOSPITAL-PLYMOUTH, INC.","275 SANDWICH STREET, PLYMOUTH, MA 02360",MA,2360.0,DEA,41.944397,-70.645004,Dec2018,http://maps.google.com/maps?q=BETH%20ISRAEL%20DEACONESS%20HOSPITALPLYMOUTH%20INC%2C275%20SANDWICH%20STREET%2C+PLYMOUTH%2C+MA+02360,Plymouth,,,,,,left_only
"CVS PHARMACY, INC.","8 PILGRIM HILL ROAD, PLYMOUTH, MA 02360",MA,2360.0,DEA,41.951021,-70.687659,Dec2018,http://maps.google.com/maps?q=CVS%20PHARMACY%20INC%2C8%20PILGRIM%20HILL%20ROAD%2C+PLYMOUTH%2C+MA+02360,Plymouth,http://maps.google.com/maps?q=CVS%20PHARMACY%20INC%2C8%20PILGRIM%20HILL%20ROAD%2C+PLYMOUTH%2C+MA+02360,MA,2360.0,DEA,Oct2018,both
"CVS PHARMACY, INC.","171 NORTH MAIN STREET, RANDOLPH, MA 02368",MA,2368.0,DEA,42.16536,-71.04311,Dec2018,http://maps.google.com/maps?q=CVS%20PHARMACY%20INC%2C171%20NORTH%20MAIN%20STREET%2C+RANDOLPH%2C+MA+02368,Norfolk,,,,,,left_only
"WALGREEN EASTERN CO., INC.","170 N MAIN STREET, RANDOLPH, MA 02368",MA,2368.0,DEA,42.165718,-71.04337,Dec2018,http://maps.google.com/maps?q=WALGREEN%20EASTERN%20CO%20INC%2C170%20N%20MAIN%20STREET%2C+RANDOLPH%2C+MA+02368,Norfolk,,,,,,left_only
"CVS PHARMACY, INC.","12 HARVARD ST., WALTHAM, MA 02453",MA,2453.0,DEA,42.375847,-71.24380500000002,Dec2018,http://maps.google.com/maps?q=CVS%20PHARMACY%20INC%2C12%20HARVARD%20ST.%2C+WALTHAM%2C+MA+02453,Middlesex,,,,,,left_only
NEWTON-WELLESLEY HOSPITAL,"ATTN PHARMACY, 2014 WASHINGTON ST, NEWTON LOWER FALLS, MA 02462",MA,2462.0,DEA,42.3241175,-71.1031663,Dec2018,http://maps.google.com/maps?q=NEWTONWELLESLEY%20HOSPITAL%2CATTN%20PHARMACY%2C+NEWTON%20LOWER%20FALLS%2C+MA+02462,Suffolk,,,,,,left_only
BRIGHAM AND WOMEN'S HOSPITAL,"850 BOYLSTON STREET, DELIVER TO PHARMACY DEPT, 75 F, CHESTNUT HILL, MA 02467",MA,2467.0,DEA,42.3360919,-71.10670470000002,Dec2018,http://maps.google.com/maps?q=BRIGHAM%20AND%20WOMENS%20HOSPITAL%2C850%20BOYLSTON%20STREET%2C+CHESTNUT%20HILL%2C+MA+02467,Suffolk,,,,,,left_only
"CVS PHARMACY, INC.","27-43 MAIN STREET, WATERTOWN, MA 02472",MA,2472.0,DEA,42.366318,-71.18585,Dec2018,http://maps.google.com/maps?q=CVS%20PHARMACY%20INC%2C27-43%20MAIN%20STREET%2C+WATERTOWN%2C+MA+02472,Middlesex,http://maps.google.com/maps?q=CVS%20PHARMACY%20INC%2C27-43%20MAIN%20STREET%2C+WATERTOWN%2C+MA+02472,MA,2472.0,DEA,Oct2018,both
MC LEAN HOSPITAL,"PHARMACY DIRECTOR, 115 MILL STREET, BELMONT, MA 02478",MA,2478.0,DEA,42.39499,-71.192161,Dec2018,http://maps.google.com/maps?q=MC%20LEAN%20HOSPITAL%2CPHARMACY%20DIRECTOR%2C+BELMONT%2C+MA+02478,Middlesex,http://maps.google.com/maps?q=MC%20LEAN%20HOSPITAL%2CPHARMACY%20DIRECTOR%2C+BELMONT%2C+MA+02478,MA,2478.0,DEA,Oct2018,both
CAPE COD HEALTHCARE PHARMACY AT FALMOUTH HOSPITAL,"100 TER HEUN DRIVE, FALMOUTH, MA 02540",MA,2540.0,DEA,41.564934,-70.62106,Dec2018,http://maps.google.com/maps?q=CAPE%20COD%20HEALTHCARE%20PHARMACY%20AT%20FALMOUTH%20HOSPITAL%2C100%20TER%20HEUN%20DRIVE%2C+FALMOUTH%2C+MA+02540,Barnstable,,,,,,left_only
"CVS PHARMACY, INC.","105 DAVIS STRAITS, FALMOUTH, MA 02540",MA,2540.0,DEA,41.5601785,-70.5987557,Dec2018,http://maps.google.com/maps?q=CVS%20PHARMACY%20INC%2C105%20DAVIS%20STRAITS%2C+FALMOUTH%2C+MA+02540,Barnstable,,,,,,left_only
MARTHA'S VINEYARD HOSPITAL,"1 HOSPITAL ROAD, P.O. BOX 1477, OAK BLUFFS, MA 02557",MA,2557.0,DEA,41.460747,-70.580414,Dec2018,http://maps.google.com/maps?q=MARTHAS%20VINEYARD%20HOSPITAL%2C1%20HOSPITAL%20ROAD%2C+OAK%20BLUFFS%2C+MA+02557,Dukes,,,,,,left_only
CAPE COD HEALTHCARE PHARMACY AT CCH,"27 PARK STREET, HYANNIS, MA 02601",MA,2601.0,DEA,41.654377,-70.273544,Dec2018,http://maps.google.com/maps?q=CAPE%20COD%20HEALTHCARE%20PHARMACY%20AT%20CCH%2C27%20PARK%20STREET%2C+HYANNIS%2C+MA+02601,Barnstable,,,,,,left_only
"CVS PHARMACY, INC.","176 NORTH STREET, HYANNIS, MA 02601",MA,2601.0,DEA,41.65217,-70.28901,Dec2018,http://maps.google.com/maps?q=CVS%20PHARMACY%20INC%2C176%20NORTH%20STREET%2C+HYANNIS%2C+MA+02601,Barnstable,,,,,,left_only
"CVS PHARMACY, INC.","1620 PRESIDENT AVENUE, FALL RIVER, MA 02720",MA,2720.0,DEA,41.711945,-71.126976,Dec2018,http://maps.google.com/maps?q=CVS%20PHARMACY%20INC%2C1620%20PRESIDENT%20AVENUE%2C+FALL%20RIVER%2C+MA+02720,Bristol,,,,,,left_only
"WALGREEN EASTERN CO., INC.","369 PLYMOUTH AVE, FALL RIVER, MA 02721",MA,2721.0,DEA,41.69561,-71.152054,Dec2018,http://maps.google.com/maps?q=WALGREEN%20EASTERN%20CO%20INC%2C369%20PLYMOUTH%20AVE%2C+FALL%20RIVER%2C+MA+02721,Bristol,http://maps.google.com/maps?q=WALGREEN%20EASTERN%20CO%20INC%2C369%20PLYMOUTH%20AVE%2C+FALL%20RIVER%2C+MA+02721,MA,2721.0,DEA,Oct2018,both
"CVS PHARMACY, INC.","1145 KEMPTON STREET, NEW BEDFORD, MA 02740",MA,2740.0,DEA,41.6369799,-70.9565245,Dec2018,http://maps.google.com/maps?q=CVS%20PHARMACY%20INC%2C1145%20KEMPTON%20STREET%2C+NEW%20BEDFORD%2C+MA+02740,Bristol,,,,,,left_only
"WALGREEN EASTERN CO., INC.","495 STATE RD., NORTH DARTMOUTH, MA 02747",MA,2747.0,DEA,41.640903,-71.00703399999998,Dec2018,http://maps.google.com/maps?q=WALGREEN%20EASTERN%20CO%20INC%2C495%20STATE%20RD.%2C+NORTH%20DARTMOUTH%2C+MA+02747,Bristol,http://maps.google.com/maps?q=WALGREEN%20EASTERN%20CO%20INC%2C495%20STATE%20RD.%2C+NORTH%20DARTMOUTH%2C+MA+02747,MA,2747.0,DEA,Oct2018,both
"CVS PHARMACY, INC.","8 EAST WASHINGTON STREET, NORTH ATTLEBORO, MA 02760",MA,2760.0,DEA,41.96578,-71.33919,Dec2018,http://maps.google.com/maps?q=CVS%20PHARMACY%20INC%2C8%20EAST%20WASHINGTON%20STREET%2C+NORTH%20ATTLEBORO%2C+MA+02760,Bristol,http://maps.google.com/maps?q=CVS%20PHARMACY%20INC%2C8%20EAST%20WASHINGTON%20STREET%2C+NORTH%20ATTLEBORO%2C+MA+02760,MA,2760.0,DEA,Oct2018,both
"CVS PHARMACY, INC.","284 WINTHROP ST., TAUNTON PLZ, TAUNTON, MA 02780",MA,2780.0,DEA,41.889107,-71.12004,Dec2018,http://maps.google.com/maps?q=CVS%20PHARMACY%20INC%2C284%20WINTHROP%20ST.%2C+TAUNTON%2C+MA+02780,Bristol,http://maps.google.com/maps?q=CVS%20PHARMACY%20INC%2C284%20WINTHROP%20ST.%2C+TAUNTON%2C+MA+02780,MA,2780.0,DEA,Oct2018,both
"RHODE ISLAND CVS PHARMACY, L.L.C.","3986 OLD POST RD., CHARLESTOWN, RI 02813",RI,2813.0,DEA,41.3872225789,-71.6253983684,April2018,http://maps.google.com/maps?q=RHODE%20ISLAND%20CVS%20PHARMACY%20LLC%2C3986%20OLD%20POST%20RD.%2C+CHARLESTOWN%2C+RI+02813,Washington,,,,,,left_only
"RHODE ISLAND CVS PHARMACY, L.L.C.","763 TIOGUE AVENUE, COVENTRY, RI 02816",RI,2816.0,DEA,41.6822077143,-71.562527305,April2018,http://maps.google.com/maps?q=RHODE%20ISLAND%20CVS%20PHARMACY%20LLC%2C763%20TIOGUE%20AVENUE%2C+COVENTRY%2C+RI+02816,Kent,,,,,,left_only
"RHODE ISLAND CVS PHARMACY, L.L.C.","287 BROADWAY, NEWPORT, RI 02840",RI,2840.0,DEA,41.4977607446,-71.3076707535,April2018,http://maps.google.com/maps?q=RHODE%20ISLAND%20CVS%20PHARMACY%20LLC%2C287%20BROADWAY%2C+NEWPORT%2C+RI+02840,Newport,http://maps.google.com/maps?q=RHODE%20ISLAND%20CVS%20PHARMACY%20LLC%2C287%20BROADWAY%2C+NEWPORT%2C+RI+02840,RI,2840.0,DEA,Oct2018,both
USN- NAVAL HEALTH CLINIC NEW ENGLAND,"BLDG 23, 43 SMITH ROAD, NEWPORT, RI 02841",RI,2841.0,DEA,41.50392,-71.321896,Dec2018,http://maps.google.com/maps?q=USN%20NAVAL%20HEALTH%20CLINIC%20NEW%20ENGLAND%2CBLDG%2023%2C+NEWPORT%2C+RI+02841,Newport,http://maps.google.com/maps?q=USN%20NAVAL%20HEALTH%20CLINIC%20NEW%20ENGLAND%2CBLDG%2023%2C+NEWPORT%2C+RI+02841,RI,2841.0,DEA,Oct2018,both
"RHODE ISLAND CVS PHARMACY, L.L.C.","99 EAST MAIN ROAD, MIDDLETOWN, RI 02842",RI,2842.0,DEA,41.517943,-71.296166,April2018,http://maps.google.com/maps?q=RHODE%20ISLAND%20CVS%20PHARMACY%20LLC%2C99%20EAST%20MAIN%20ROAD%2C+MIDDLETOWN%2C+RI+02842,Newport,http://maps.google.com/maps?q=RHODE%20ISLAND%20CVS%20PHARMACY%20LLC%2C99%20EAST%20MAIN%20ROAD%2C+MIDDLETOWN%2C+RI+02842,RI,2842.0,DEA,Oct2018,both
"WALGREEN EASTERN CO., INC.","100 BROAD ST, PAWTUCKET, RI 02860",RI,2860.0,DEA,41.87994000000001,-71.38644000000002,Dec2018,http://maps.google.com/maps?q=WALGREEN%20EASTERN%20CO%20INC%2C100%20BROAD%20ST%2C+PAWTUCKET%2C+RI+02860,Providence,,,,,,left_only
"RHODE ISLAND CVS PHARMACY, L.L.C.","835 NEWPORT AVE., PAWTUCKET, RI 02861",RI,2861.0,DEA,41.89638239999999,-71.3544821,April2018,http://maps.google.com/maps?q=RHODE%20ISLAND%20CVS%20PHARMACY%20LLC%2C835%20NEWPORT%20AVE.%2C+PAWTUCKET%2C+RI+02861,Providence,http://maps.google.com/maps?q=RHODE%20ISLAND%20CVS%20PHARMACY%20LLC%2C835%20NEWPORT%20AVE.%2C+PAWTUCKET%2C+RI+02861,RI,2861.0,DEA,Oct2018,both
"RHODE ISLAND CVS PHARMACY, L.L.C.","11 MAIN ST., WAKEFIELD, RI 02879",RI,2879.0,DEA,41.441315973,-71.4911768649,April2018,http://maps.google.com/maps?q=RHODE%20ISLAND%20CVS%20PHARMACY%20LLC%2C11%20MAIN%20ST.%2C+WAKEFIELD%2C+RI+02879,Washington,,,,,,left_only
"RHODE ISLAND CVS PHARMACY, L.L.C.","767 WARWICK AVENUE, WARWICK, RI 02888",RI,2888.0,DEA,41.7542840204,-71.4044217143,April2018,http://maps.google.com/maps?q=RHODE%20ISLAND%20CVS%20PHARMACY%20LLC%2C767%20WARWICK%20AVENUE%2C+WARWICK%2C+RI+02888,Kent,http://maps.google.com/maps?q=RHODE%20ISLAND%20CVS%20PHARMACY%20LLC%2C767%20WARWICK%20AVENUE%2C+WARWICK%2C+RI+02888,RI,2888.0,DEA,Oct2018,both
"RHODE ISLAND CVS PHARMACY, L.L.C.","2400 WARWICK AVE, MEADOWBROOK PLAZA, WARWICK, RI 02889",RI,2889.0,DEA,41.70946,-71.39796,April2018,http://maps.google.com/maps?q=RHODE%20ISLAND%20CVS%20PHARMACY%20LLC%2C2400%20WARWICK%20AVE%2C+WARWICK%2C+RI+02889,Kent,,,,,,left_only
QRX INC,"224 POST RD, UNIT 7, WESTERLY, RI 02891",RI,2891.0,DEA,41.351166,-71.77215,Dec2018,http://maps.google.com/maps?q=QRX%20INC%2C224%20POST%20RD%2C+WESTERLY%2C+RI+02891,Washington,http://maps.google.com/maps?q=QRX%20INC%2C224%20POST%20RD%2C+WESTERLY%2C+RI+02891,RI,2891.0,DEA,Oct2018,both
"RHODE ISLAND CVS PHARMACY, L.L.C.","150 GRANITE STREET, WESTERLY, RI 02891",RI,2891.0,DEA,41.3693562521,-71.8197826328,April2018,http://maps.google.com/maps?q=RHODE%20ISLAND%20CVS%20PHARMACY%20LLC%2C150%20GRANITE%20STREET%2C+WESTERLY%2C+RI+02891,Washington,,,,,,left_only
"RHODE ISLAND CVS PHARMACY, L.L.C.","120 EDDIE DOWLING HWY., NORTH SMITHFIELD, RI 02896",RI,2896.0,DEA,41.9811815148,-71.5139161162,April2018,http://maps.google.com/maps?q=RHODE%20ISLAND%20CVS%20PHARMACY%20LLC%2C120%20EDDIE%20DOWLING%20HWY.%2C+NORTH%20SMITHFIELD%2C+RI+02896,Providence,,,,,,left_only
"RHODE ISLAND CVS PHARMACY, L.L.C.","1919 MINERAL SPRING AVENUE, NORTH PROVIDENCE, RI 02904",RI,2904.0,DEA,41.8600533395,-71.4694816354,April2018,http://maps.google.com/maps?q=RHODE%20ISLAND%20CVS%20PHARMACY%20LLC%2C1919%20MINERAL%20SPRING%20AVENUE%2C+NORTH%20PROVIDENCE%2C+RI+02904,Providence,,,,,,left_only
"WALGREEN EASTERN CO., INC.","533 ELMWOOD AVE., PROVIDENCE, RI 02907",RI,2907.0,DEA,41.79802700000001,-71.42622,Dec2018,http://maps.google.com/maps?q=WALGREEN%20EASTERN%20CO%20INC%2C533%20ELMWOOD%20AVE.%2C+PROVIDENCE%2C+RI+02907,Providence,http://maps.google.com/maps?q=WALGREEN%20EASTERN%20CO%20INC%2C533%20ELMWOOD%20AVE.%2C+PROVIDENCE%2C+RI+02907,RI,2907.0,DEA,Oct2018,both
"RHODE ISLAND CVS PHARMACY, L.L.C.","681 RESERVOIR AVENUE, CRANSTON, RI 02910",RI,2910.0,DEA,41.781555,-71.44059,Dec2018,http://maps.google.com/maps?q=RHODE%20ISLAND%20CVS%20PHARMACY%20LLC%2C681%20RESERVOIR%20AVENUE%2C+CRANSTON%2C+RI+02910,Providence,,,,,,left_only
"RHODE ISLAND CVS PHARMACY, L.L.C.","640 WARREN AVENUE, EAST PROVIDENCE, RI 02914",RI,2914.0,DEA,41.8104114444,-71.3554154444,April2018,http://maps.google.com/maps?q=RHODE%20ISLAND%20CVS%20PHARMACY%20LLC%2C640%20WARREN%20AVENUE%2C+EAST%20PROVIDENCE%2C+RI+02914,Providence,http://maps.google.com/maps?q=RHODE%20ISLAND%20CVS%20PHARMACY%20LLC%2C640%20WARREN%20AVENUE%2C+EAST%20PROVIDENCE%2C+RI+02914,RI,2914.0,DEA,Oct2018,both
"RHODE ISLAND CVS PHARMACY, L.L.C.","1400 HARTFORD AVENUE, JOHNSTON, RI 02919",RI,2919.0,DEA,41.823767,-71.498786,April2018,http://maps.google.com/maps?q=RHODE%20ISLAND%20CVS%20PHARMACY%20LLC%2C1400%20HARTFORD%20AVENUE%2C+JOHNSTON%2C+RI+02919,Providence,,,,,,left_only
"CVS MANCHESTER NH, L.L.C.","242 MAIN STREET, NASHUA, NH 03060",NH,3060.0,DEA,42.7575078,-71.4634922,April2018,http://maps.google.com/maps?q=CVS%20MANCHESTER%20NH%20LLC%2C242%20MAIN%20STREET%2C+NASHUA%2C+NH+03060,Hillsborough,http://maps.google.com/maps?q=CVS%20MANCHESTER%20NH%20LLC%2C242%20MAIN%20STREET%2C+NASHUA%2C+NH+03060,NH,3060.0,DEA,Oct2018,both
SAINT JOSEPH'S HOSPITAL,"ATTN PHARMACY, 172 KINSLEY ST, NASHUA, NH 03060",NH,3060.0,DEA,42.749168,-71.48021,Dec2018,http://maps.google.com/maps?q=SAINT%20JOSEPHS%20HOSPITAL%2CATTN%20PHARMACY%2C+NASHUA%2C+NH+03060,Hillsborough,,,,,,left_only
"WALGREEN EASTERN CO., INC.","283 MAIN ST, NASHUA, NH 03060",NH,3060.0,DEA,42.75441,-71.46240999999998,Dec2018,http://maps.google.com/maps?q=WALGREEN%20EASTERN%20CO%20INC%2C283%20MAIN%20ST%2C+NASHUA%2C+NH+03060,Hillsborough,http://maps.google.com/maps?q=WALGREEN%20EASTERN%20CO%20INC%2C283%20MAIN%20ST%2C+NASHUA%2C+NH+03060,NH,3060.0,DEA,Oct2018,both
NASHUA HOSPITAL ASSOC,"8 PROSPECT ST, BOX 2014, NASHUA, NH 03061",NH,3061.0,DEA,42.75627100000001,-71.4621,Dec2018,http://maps.google.com/maps?q=NASHUA%20HOSPITAL%20ASSOC%2C8%20PROSPECT%20ST%2C+NASHUA%2C+NH+03061,Hillsborough,,,,,,left_only
CATHOLIC MEDICAL CENTER HOSP,"100 MCGREGOR STREET, MANCHESTER, NH 03102",NH,3102.0,DEA,42.99111,-71.47379000000002,Dec2018,http://maps.google.com/maps?q=CATHOLIC%20MEDICAL%20CENTER%20HOSP%2C100%20MCGREGOR%20STREET%2C+MANCHESTER%2C+NH+03102,Hillsborough,,,,,,left_only
LAKES REGION GENERAL HOSPITAL,"80 HIGHLAND STREET, LACONIA, NH 03246",NH,3246.0,DEA,43.527912,-71.46084,Dec2018,http://maps.google.com/maps?q=LAKES%20REGION%20GENERAL%20HOSPITAL%2C80%20HIGHLAND%20STREET%2C+LACONIA%2C+NH+03246,Belknap,http://maps.google.com/maps?q=LAKES%20REGION%20GENERAL%20HOSPITAL%2C80%20HIGHLAND%20STREET%2C+LACONIA%2C+NH+03246,NH,3246.0,DEA,Oct2018,both
FIRST COLONY CORP,"PO BOX 10, 82 NEWPORT RD, NEW LONDON, NH 03257",NH,3257.0,DEA,43.42176720000001,-71.9968423,April2018,http://maps.google.com/maps?q=FIRST%20COLONY%20CORP%2CPO%20BOX%2010%2C+NEW%20LONDON%2C+NH+03257,Merrimack,http://maps.google.com/maps?q=FIRST%20COLONY%20CORP%2CPO%20BOX%2010%2C+NEW%20LONDON%2C+NH+03257,NH,3257.0,DEA,Oct2018,both
"CVS MANCHESTER NH, L.L.C.","268 WEST ST., KEENE, NH 03431",NH,3431.0,DEA,42.9324453684,-72.2882031579,April2018,http://maps.google.com/maps?q=CVS%20MANCHESTER%20NH%20LLC%2C268%20WEST%20ST.%2C+KEENE%2C+NH+03431,Cheshire,http://maps.google.com/maps?q=CVS%20MANCHESTER%20NH%20LLC%2C268%20WEST%20ST.%2C+KEENE%2C+NH+03431,NH,3431.0,DEA,Oct2018,both
"WALGREEN EASTERN CO., INC.","440 WEST ST, KEENE, NH 03431",NH,3431.0,DEA,42.933525,-72.29496,Dec2018,http://maps.google.com/maps?q=WALGREEN%20EASTERN%20CO%20INC%2C440%20WEST%20ST%2C+KEENE%2C+NH+03431,Cheshire,http://maps.google.com/maps?q=WALGREEN%20EASTERN%20CO%20INC%2C440%20WEST%20ST%2C+KEENE%2C+NH+03431,NH,3431.0,DEA,Oct2018,both
DICK HALL'S HOUSE PHARMACY,"5 ROPE FERRY RD., HANOVER, NH 03755",NH,3755.0,DEA,43.7084513,-72.28720182100001,April2018,http://maps.google.com/maps?q=DICK%20HALLS%20HOUSE%20PHARMACY%2C5%20ROPE%20FERRY%20RD.%2C+HANOVER%2C+NH+03755,Grafton,http://maps.google.com/maps?q=DICK%20HALLS%20HOUSE%20PHARMACY%2C5%20ROPE%20FERRY%20RD.%2C+HANOVER%2C+NH+03755,NH,3755.0,DEA,Oct2018,both
DARTMOUTH-HITCHCOCK PHARMACY,"ONE MEDICAL CENTER DRIVE, LEBANON, NH 03756",NH,3756.0,DEA,43.6761758,-72.2753515,April2018,http://maps.google.com/maps?q=DARTMOUTHHITCHCOCK%20PHARMACY%2CONE%20MEDICAL%20CENTER%20DRIVE%2C+LEBANON%2C+NH+03756,Grafton,,,,,,left_only
DARTMOUTH HITCHCOCK PHARMACY AT CENTERRA,"12 CENTERRA PARKWAY, LEBANON, NH 03766",NH,3766.0,DEA,43.6744643333,-72.2612493333,April2018,http://maps.google.com/maps?q=DARTMOUTH%20HITCHCOCK%20PHARMACY%20AT%20CENTERRA%2C12%20CENTERRA%20PARKWAY%2C+LEBANON%2C+NH+03766,Grafton,,,,,,left_only
"WALGREEN EASTERN CO., INC.","3 AIRPORT RD, WEST LEBANON, NH 03784",NH,3784.0,DEA,43.629246,-72.32051,Dec2018,http://maps.google.com/maps?q=WALGREEN%20EASTERN%20CO%20INC%2C3%20AIRPORT%20RD%2C+WEST%20LEBANON%2C+NH+03784,Grafton,http://maps.google.com/maps?q=WALGREEN%20EASTERN%20CO%20INC%2C3%20AIRPORT%20RD%2C+WEST%20LEBANON%2C+NH+03784,NH,3784.0,DEA,Oct2018,both
WENTWORTH DOUGLASS HOSPITAL,"789 CENTRAL AVE, DOVER, NH 03820",NH,3820.0,DEA,43.213841,-70.87642840000002,Dec2018,http://maps.google.com/maps?q=WENTWORTH%20DOUGLASS%20HOSPITAL%2C789%20CENTRAL%20AVE%2C+DOVER%2C+NH+03820,Strafford,http://maps.google.com/maps?q=WENTWORTH%20DOUGLASS%20HOSPITAL%2C789%20CENTRAL%20AVE%2C+DOVER%2C+NH+03820,NH,3820.0,DEA,Oct2018,both
"WALGREEN EASTERN CO., INC.","104 S MAIN STREET, ROCHESTER, NH 03867",NH,3867.0,DEA,43.298954,-70.9697,Dec2018,http://maps.google.com/maps?q=WALGREEN%20EASTERN%20CO%20INC%2C104%20S%20MAIN%20STREET%2C+ROCHESTER%2C+NH+03867,Strafford,,,,,,left_only
"GUARDIAN PHARMACY OF MAINE, LLC","3 BUSINESS PARKWAY, SUITE 2, BRUNSWICK, ME 04011",ME,4011.0,DEA,43.907619,-70.00239599999999,Dec2018,http://maps.google.com/maps?q=GUARDIAN%20PHARMACY%20OF%20MAINE%20LLC%2C3%20BUSINESS%20PARKWAY%2C%20SUITE%202%2C+BRUNSWICK%2C+ME+04011,Cumberland,http://maps.google.com/maps?q=GUARDIAN%20PHARMACY%20OF%20MAINE%20LLC%2C3%20BUSINESS%20PARKWAY%2C%20SUITE%202%2C+BRUNSWICK%2C+ME+04011,ME,4011.0,DEA,Oct2018,both
"WALGREEN EASTERN CO., INC.","53 PARIS ST, NORWAY, ME 04268",ME,4268.0,DEA,44.21258,-70.5292,Dec2018,http://maps.google.com/maps?q=WALGREEN%20EASTERN%20CO%20INC%2C53%20PARIS%20ST%2C+NORWAY%2C+ME+04268,Oxford,http://maps.google.com/maps?q=WALGREEN%20EASTERN%20CO%20INC%2C53%20PARIS%20ST%2C+NORWAY%2C+ME+04268,ME,4268.0,DEA,Oct2018,both
FRANKLIN MEMORIAL HOSPITAL,"111 FRANKLIN HEALTH COMMONS, FARMINGTON, ME 04938",ME,4938.0,DEA,44.6264756,-70.16299140000001,Dec2018,http://maps.google.com/maps?q=FRANKLIN%20MEMORIAL%20HOSPITAL%2C111%20FRANKLIN%20HEALTH%20COMMONS%2C+FARMINGTON%2C+ME+04938,Franklin,,,,,,left_only
REDINGTON-FAIRVIEW GEN HOSP,"46 FAIRVIEW AVENUE, PO BOX 468, SKOWHEGAN, ME 04976",ME,4976.0,DEA,44.75888,-69.713075,Dec2018,http://maps.google.com/maps?q=REDINGTONFAIRVIEW%20GEN%20HOSP%2C46%20FAIRVIEW%20AVENUE%2C%20PO%20BOX%20468%2C+SKOWHEGAN%2C+ME+04976,Somerset,,,,,,left_only
GIFFORD MEMORIAL HOSPITAL INC,"44 SOUTH MAIN ST, RANDOLPH, VT 05060",VT,5060.0,DEA,43.917103,-72.66611999999998,Dec2018,http://maps.google.com/maps?q=GIFFORD%20MEMORIAL%20HOSPITAL%20INC%2C44%20SOUTH%20MAIN%20ST%2C+RANDOLPH%2C+VT+05060,Orange,http://maps.google.com/maps?q=GIFFORD%20MEMORIAL%20HOSPITAL%20INC%2C44%20SOUTH%20MAIN%20ST%2C+RANDOLPH%2C+VT+05060,VT,5060.0,DEA,Oct2018,both
GREATER FALLS PHARMACY,"78 ATKINSON ST, BELLOWS FALLS, VT 05101",VT,5101.0,DEA,43.133934,-72.45026,Dec2018,http://maps.google.com/maps?q=GREATER%20FALLS%20PHARMACY%2C78%20ATKINSON%20ST%2C+BELLOWS%20FALLS%2C+VT+05101,Windham,http://maps.google.com/maps?q=GREATER%20FALLS%20PHARMACY%2C78%20ATKINSON%20ST%2C+BELLOWS%20FALLS%2C+VT+05101,VT,5101.0,DEA,Oct2018,both
LUDLOW PHARMACY INC.,"57 POND ST, LUDLOW, VT 05149",VT,5149.0,DEA,43.40649000000001,-72.71748000000002,Dec2018,http://maps.google.com/maps?q=LUDLOW%20PHARMACY%20INC%2C57%20POND%20ST%2C+LUDLOW%2C+VT+05149,Windsor,http://maps.google.com/maps?q=LUDLOW%20PHARMACY%20INC%2C57%20POND%20ST%2C+LUDLOW%2C+VT+05149,VT,5149.0,DEA,Oct2018,both
SPRINGFIELD PHARMACY INC,"262 RIVER STREET, SPRINGFIELD, VT 05156",VT,5156.0,DEA,43.3111,-72.498985,Dec2018,http://maps.google.com/maps?q=SPRINGFIELD%20PHARMACY%20INC%2C262%20RIVER%20STREET%2C+SPRINGFIELD%2C+VT+05156,Windsor,,,,,,left_only
SOUTHWESTERN VERMONT MEDICAL CENTER,"100 HOSPITAL DRIVE, BENNINGTON, VT 05201",VT,5201.0,DEA,42.873928,-73.20435,Dec2018,http://maps.google.com/maps?q=SOUTHWESTERN%20VERMONT%20MEDICAL%20CENTER%2C100%20HOSPITAL%20DRIVE%2C+BENNINGTON%2C+VT+05201,Bennington,,,,,,left_only
"THE PHARMACY - NORTHSHIRE, LLC","34 WAYS LANE, MANCHESTER CENTER, VT 05255",VT,5255.0,DEA,43.17215,-73.06419,Dec2018,http://maps.google.com/maps?q=THE%20PHARMACY%20%20NORTHSHIRE%20LLC%2C34%20WAYS%20LANE%2C+MANCHESTER%20CENTER%2C+VT+05255,Bennington,http://maps.google.com/maps?q=THE%20PHARMACY%20%20NORTHSHIRE%20LLC%2C34%20WAYS%20LANE%2C+MANCHESTER%20CENTER%2C+VT+05255,VT,5255.0,DEA,Oct2018,both
BRATTLEBORO MEMORIAL HOSP,"PHARMACY DEPT., 17 BELMONT AVE., BRATTLEBORO, VT 05301",VT,5301.0,DEA,42.8409809,-72.56460909999998,Dec2018,http://maps.google.com/maps?q=BRATTLEBORO%20MEMORIAL%20HOSP%2CPHARMACY%20DEPT.%2C+BRATTLEBORO%2C+VT+05301,Windham,,,,,,left_only
HOTEL PHARMACY,"20 ELLIOT ST, BRATTLEBORO, VT 05301",VT,5301.0,DEA,42.852077,-72.5585,Dec2018,http://maps.google.com/maps?q=HOTEL%20PHARMACY%2C20%20ELLIOT%20ST%2C+BRATTLEBORO%2C+VT+05301,Windham,http://maps.google.com/maps?q=HOTEL%20PHARMACY%2C20%20ELLIOT%20ST%2C+BRATTLEBORO%2C+VT+05301,VT,5301.0,DEA,Oct2018,both
LAKESIDE PHARMACY INC,"242 PEARL ST, BURLINGTON, VT 05401",VT,5401.0,DEA,44.480587,-73.20900999999998,Dec2018,http://maps.google.com/maps?q=LAKESIDE%20PHARMACY%20INC%2C242%20PEARL%20ST%2C+BURLINGTON%2C+VT+05401,Chittenden,http://maps.google.com/maps?q=LAKESIDE%20PHARMACY%20INC%2C242%20PEARL%20ST%2C+BURLINGTON%2C+VT+05401,VT,5401.0,DEA,Oct2018,both
UNIVERSITY OF VERMONT MEDICAL CENTER,"1 SOUTH PROSPECT STREET, BURLINGTON, VT 05401",VT,5401.0,DEA,44.480698,-73.20062,Dec2018,http://maps.google.com/maps?q=UNIVERSITY%20OF%20VERMONT%20MEDICAL%20CENTER%2C1%20SOUTH%20PROSPECT%20STREET%2C+BURLINGTON%2C+VT+05401,Chittenden,,,,,,left_only
UNIVERSITY OF VERMONT MEDICAL CENTER,"111 COLCHESTER AVENUE, BURLINGTON, VT 05401",VT,5401.0,DEA,44.480686,-73.19725,Dec2018,http://maps.google.com/maps?q=UNIVERSITY%20OF%20VERMONT%20MEDICAL%20CENTER%2C111%20COLCHESTER%20AVENUE%2C+BURLINGTON%2C+VT+05401,Chittenden,,,,,,left_only
"WALGREEN EASTERN CO., INC.","514 FARRELL ST., BURLINGTON, VT 05401",VT,5401.0,DEA,44.45066,-73.208045,Dec2018,http://maps.google.com/maps?q=WALGREEN%20EASTERN%20CO%20INC%2C514%20FARRELL%20ST.%2C+BURLINGTON%2C+VT+05401,Chittenden,http://maps.google.com/maps?q=WALGREEN%20EASTERN%20CO%20INC%2C514%20FARRELL%20ST.%2C+BURLINGTON%2C+VT+05401,VT,5401.0,DEA,Oct2018,both
VERMONT FAMILY PHARMACY INC,"1219 NORTH AVENUE, BURLINGTON, VT 05408",VT,5408.0,DEA,44.508566,-73.24745030390001,April2018,http://maps.google.com/maps?q=VERMONT%20FAMILY%20PHARMACY%20INC%2C1219%20NORTH%20AVENUE%2C+BURLINGTON%2C+VT+05408,Chittenden,,,,,,left_only
MARBLE WORKS PHARMACY,"61 PINE STREET, SUITE 401, BRISTOL, VT 05443",VT,5443.0,DEA,44.138615,-73.08788,Dec2018,http://maps.google.com/maps?q=MARBLE%20WORKS%20PHARMACY%2C61%20PINE%20STREET%2C+BRISTOL%2C+VT+05443,Addison,http://maps.google.com/maps?q=MARBLE%20WORKS%20PHARMACY%2C61%20PINE%20STREET%2C+BRISTOL%2C+VT+05443,VT,5443.0,DEA,Oct2018,both
UNIVERSITY OF VERMONT MEDICAL CENTER,"792 COLLEGE PARKWAY SUITE 103, COLCHESTER, VT 05446",VT,5446.0,DEA,44.4967782,-73.15703549999998,Dec2018,http://maps.google.com/maps?q=UNIVERSITY%20OF%20VERMONT%20MEDICAL%20CENTER%2C792%20COLLEGE%20PARKWAY%20SUITE%20103%2C+COLCHESTER%2C+VT+05446,Chittenden,,,,,,left_only
RICHFORD HEALTH CENTER INC,"44 MAIN STREET, SUITE 201, RICHFORD, VT 05476",VT,5476.0,DEA,44.99568,-72.67261500000002,Dec2018,http://maps.google.com/maps?q=RICHFORD%20HEALTH%20CENTER%20INC%2C44%20MAIN%20STREET%2C+RICHFORD%2C+VT+05476,Franklin,http://maps.google.com/maps?q=RICHFORD%20HEALTH%20CENTER%20INC%2C44%20MAIN%20STREET%2C+RICHFORD%2C+VT+05476,VT,5476.0,DEA,Oct2018,both
"NORTHWESTERN MEDICAL CTR, INC","133 FAIRFIELD STREET, ST ALBANS, VT 05478",VT,5478.0,DEA,44.807768,-73.072321,Dec2018,http://maps.google.com/maps?q=NORTHWESTERN%20MEDICAL%20CTR%20INC%2C133%20FAIRFIELD%20STREET%2C+ST%20ALBANS%2C+VT+05478,Franklin,,,,,,left_only
SOUTH HERO PHARMACY LLC,"330-334 ROUTE 2, SOUTH HERO, VT 05486",VT,5486.0,DEA,44.645306,-73.308105,Dec2018,http://maps.google.com/maps?q=SOUTH%20HERO%20PHARMACY%20LLC%2C330-334%20ROUTE%202%2C+SOUTH%20HERO%2C+VT+05486,Grand Isle,,,,,,left_only
MARBLE WORKS PHARMACY,"187 MAIN STREET, VERGENNES, VT 05491",VT,5491.0,DEA,44.16783,-73.25211999999998,Dec2018,http://maps.google.com/maps?q=MARBLE%20WORKS%20PHARMACY%2C187%20MAIN%20STREET%2C+VERGENNES%2C+VT+05491,Addison,,,,,,left_only
HIGH MOUNTAIN CORPORATION,"DBA RUTLAND PHARMACY, 75 ALLEN STREET, RUTLAND, VT 05701",VT,5701.0,DEA,43.59777860000001,-72.96303879999998,Dec2018,http://maps.google.com/maps?q=HIGH%20MOUNTAIN%20CORPORATION%2CDBA%20RUTLAND%20PHARMACY%2C+RUTLAND%2C+VT+05701,Rutland,,,,,,left_only
RUTLAND REGIONAL MEDICAL CTR,"160 ALLEN ST ATTN PHARM DEPT, RUTLAND, VT 05701",VT,5701.0,DEA,43.59745,-72.96352399999998,Dec2018,http://maps.google.com/maps?q=RUTLAND%20REGIONAL%20MEDICAL%20CTR%2C160%20ALLEN%20ST%20ATTN%20PHARM%20DEPT%2C+RUTLAND%2C+VT+05701,Rutland,,,,,,left_only
WILCOX PHARMACY,"252 STRATTON ROAD, RUTLAND, VT 05701",VT,5701.0,DEA,43.61682,-72.956795,Dec2018,http://maps.google.com/maps?q=WILCOX%20PHARMACY%2C252%20STRATTON%20ROAD%2C+RUTLAND%2C+VT+05701,Rutland,http://maps.google.com/maps?q=WILCOX%20PHARMACY%2C252%20STRATTON%20ROAD%2C+RUTLAND%2C+VT+05701,VT,5701.0,DEA,Oct2018,both
MARBLE WORKS PHARMACY,"99 MAPLE ST, STE 19, MIDDLEBURY, VT 05753",VT,5753.0,DEA,44.01532,-73.17022,Dec2018,http://maps.google.com/maps?q=MARBLE%20WORKS%20PHARMACY%2C99%20MAPLE%20ST%2C+MIDDLEBURY%2C+VT+05753,Addison,http://maps.google.com/maps?q=MARBLE%20WORKS%20PHARMACY%2C99%20MAPLE%20ST%2C+MIDDLEBURY%2C+VT+05753,VT,5753.0,DEA,Oct2018,both
PORTER HOSPITAL,"C/O DIRECTOR OF PHARMACY, 115 PORTER DRIVE, MIDDLEBURY, VT 05753",VT,5753.0,DEA,44.0013934,-73.1557079,Dec2018,http://maps.google.com/maps?q=PORTER%20HOSPITAL%2CC/O%20DIRECTOR%20OF%20PHARMACY%2C+MIDDLEBURY%2C+VT+05753,Addison,http://maps.google.com/maps?q=PORTER%20HOSPITAL%2CC/O%20DIRECTOR%20OF%20PHARMACY%2C+MIDDLEBURY%2C+VT+05753,VT,5753.0,DEA,Oct2018,both
GAUTHIER'S PHARMACY INC,"415 RAILROAD ST, ST JOHNSBURY, VT 05819",VT,5819.0,DEA,44.418582,-72.01589200000002,Dec2018,http://maps.google.com/maps?q=GAUTHIERS%20PHARMACY%20INC%2C415%20RAILROAD%20ST%2C+ST%20JOHNSBURY%2C+VT+05819,Caledonia,,,,,,left_only
NORTHEASTERN VT REG HOSP INC,"HOSPITAL DRIVE, ST JOHNSBURY, VT 05819",VT,5819.0,DEA,44.445372,-72.01550999999998,April2018,http://maps.google.com/maps?q=NORTHEASTERN%20VT%20REG%20HOSP%20INC%2CHOSPITAL%20DRIVE%2C+ST%20JOHNSBURY%2C+VT+05819,Caledonia,,,,,,left_only
NORTH COUNTRY HOSPITAL AND,"189 PROUTY DRIVE, NEWPORT, VT 05855",VT,5855.0,DEA,44.955699,-72.200665,Dec2018,http://maps.google.com/maps?q=NORTH%20COUNTRY%20HOSPITAL%20AND%2C189%20PROUTY%20DRIVE%2C+NEWPORT%2C+VT+05855,Orleans,,,,,,left_only
CHARTER OAK HEALTH CENTER,"PHARMACY, 21 GRAND STREET, HARTFORD, CT 06106",CT,6106.0,DEA,41.7577189,-72.6830985,Dec2018,http://maps.google.com/maps?q=CHARTER%20OAK%20HEALTH%20CENTER%2CPHARMACY%2C+HARTFORD%2C+CT+06106,Hartford,,,,,,left_only
USN NAVAL SUBMARINE BASE MEDICAL,"LONDON BLDG 449, 1 WAHOO DRIVE, GROTON, CT 06349",CT,6349.0,DEA,41.399286,-72.086619,Dec2018,http://maps.google.com/maps?q=USN%20NAVAL%20SUBMARINE%20BASE%20MEDICAL%2CLONDON%20BLDG%20449%2C+GROTON%2C+CT+06349,New London,,,,,,left_only
"NEW JERSEY CVS PHARMACY, L.L.C.","560 PASSIAC AVE, WEST CALDWELL S/C, WEST CALDWELL, NJ 07006",NJ,7006.0,DEA,40.849139,-74.2987946,April2018,http://maps.google.com/maps?q=NEW%20JERSEY%20CVS%20PHARMACY%20LLC%2C560%20PASSIAC%20AVE%2C+WEST%20CALDWELL%2C+NJ+07006,Essex,,,,,,left_only
CUREMED PHARMACY,"353 CROOKS AVENUE, CLIFTON, NJ 07011",NJ,7011.0,DEA,40.8909065,-74.1458812,Dec2018,http://maps.google.com/maps?q=CUREMED%20PHARMACY%2C353%20CROOKS%20AVENUE%2C+CLIFTON%2C+NJ+07011,Passaic,,,,,,left_only
"WALGREEN EASTERN CO., INC.","508 DR MARTIN LUTHER KING JR, EAST ORANGE, NJ 07018",NJ,7018.0,DEA,40.765697,-74.21665,Dec2018,http://maps.google.com/maps?q=WALGREEN%20EASTERN%20CO%20INC%2C508%20DR%20MARTIN%20LUTHER%20KING%20JR%2C+EAST%20ORANGE%2C+NJ+07018,Essex,http://maps.google.com/maps?q=WALGREEN%20EASTERN%20CO%20INC%2C508%20DR%20MARTIN%20LUTHER%20KING%20JR%2C+EAST%20ORANGE%2C+NJ+07018,NJ,7018.0,DEA,Oct2018,both
"NEW JERSEY CVS PHARMACY, L.L.C.","59 WASHINGTON ST, COURT STREET PLAZA, HOBOKEN, NJ 07030",NJ,7030.0,DEA,40.73676,-74.0311,April2018,http://maps.google.com/maps?q=NEW%20JERSEY%20CVS%20PHARMACY%20LLC%2C59%20WASHINGTON%20ST%2C+HOBOKEN%2C+NJ+07030,Hudson,,,,,,left_only
MIDTOWN DRUGS,"581 KEARNY AVE, KEARNY, NJ 07032",NJ,7032.0,DEA,40.770744,-74.14516,Dec2018,http://maps.google.com/maps?q=MIDTOWN%20DRUGS%2C581%20KEARNY%20AVE%2C+KEARNY%2C+NJ+07032,Hudson,http://maps.google.com/maps?q=MIDTOWN%20DRUGS%2C581%20KEARNY%20AVE%2C+KEARNY%2C+NJ+07032,NJ,7032.0,DEA,Oct2018,both
"WALGREEN EASTERN CO., INC.","22 EAST ST GEORGES AVENUE, LINDEN, NJ 07036",NJ,7036.0,DEA,40.6374968333,-74.2639915833,April2018,http://maps.google.com/maps?q=WALGREEN%20EASTERN%20CO%20INC%2C22%20EAST%20ST%20GEORGES%20AVENUE%2C+LINDEN%2C+NJ+07036,Union,http://maps.google.com/maps?q=WALGREEN%20EASTERN%20CO%20INC%2C22%20EAST%20ST%20GEORGES%20AVENUE%2C+LINDEN%2C+NJ+07036,NJ,7036.0,DEA,Oct2018,both
"NEW JERSEY CVS PHARMACY, L.L.C.","9015 BERGENLINE AVENUE - 90TH STREET, NORTH BERGEN, NJ 07047",NJ,7047.0,DEA,40.808548,-74.00191,April2018,http://maps.google.com/maps?q=NEW%20JERSEY%20CVS%20PHARMACY%20LLC%2C9015%20BERGENLINE%20AVENUE%20-%2090TH%20STREET%2C+NORTH%20BERGEN%2C+NJ+07047,Hudson,,,,,,left_only
"WALGREEN EASTERN CO., INC.","200 BALDWIN RD. SUITE 200, PARSIPPANY, NJ 07054",NJ,7054.0,DEA,40.865192,-74.39451,Dec2018,http://maps.google.com/maps?q=WALGREEN%20EASTERN%20CO%20INC%2C200%20BALDWIN%20RD.%20SUITE%20200%2C+PARSIPPANY%2C+NJ+07054,Morris,http://maps.google.com/maps?q=WALGREEN%20EASTERN%20CO%20INC%2C200%20BALDWIN%20RD.%20SUITE%20200%2C+PARSIPPANY%2C+NJ+07054,NJ,7054.0,DEA,Oct2018,both
"NEW JERSEY CVS PHARMACY, L.L.C.","890 SAINT GEORGE'S AVENUE, RAHWAY, NJ 07065",NJ,7065.0,DEA,40.6056137143,-74.2888898571,April2018,http://maps.google.com/maps?q=NEW%20JERSEY%20CVS%20PHARMACY%20LLC%2C890%20SAINT%20GEORGE'S%20AVENUE%2C+RAHWAY%2C+NJ+07065,Union,,,,,,left_only
"WALGREEN EASTERN CO., INC.","637 HOBOKEN ROAD, CARLSTADT, NJ 07072",NJ,7072.0,DEA,40.840675,-74.1013,Dec2018,http://maps.google.com/maps?q=WALGREEN%20EASTERN%20CO%20INC%2C637%20HOBOKEN%20ROAD%2C+CARLSTADT%2C+NJ+07072,Bergen,,,,,,left_only
TWIN CITY PHARMACY,"1708 PARK AVENUE, SOUTH PLAINFIELD, NJ 07080",NJ,7080.0,DEA,40.598022,-74.40134,Dec2018,http://maps.google.com/maps?q=TWIN%20CITY%20PHARMACY%2C1708%20PARK%20AVENUE%2C+SOUTH%20PLAINFIELD%2C+NJ+07080,Middlesex,,,,,,left_only
"NEW JERSEY CVS PHARMACY, L.L.C.","2287 MORRIS AVENUE, UNION, NJ 07083",NJ,7083.0,DEA,40.6992080625,-74.28260745829998,April2018,http://maps.google.com/maps?q=NEW%20JERSEY%20CVS%20PHARMACY%20LLC%2C2287%20MORRIS%20AVENUE%2C+UNION%2C+NJ+07083,Union,,,,,,left_only
"WALGREEN EASTERN CO., INC.","2148 MORRIS AVE, UNION, NJ 07083",NJ,7083.0,DEA,40.69793,-74.27662,Dec2018,http://maps.google.com/maps?q=WALGREEN%20EASTERN%20CO%20INC%2C2148%20MORRIS%20AVE%2C+UNION%2C+NJ+07083,Union,http://maps.google.com/maps?q=WALGREEN%20EASTERN%20CO%20INC%2C2148%20MORRIS%20AVE%2C+UNION%2C+NJ+07083,NJ,7083.0,DEA,Oct2018,both
BARON'S FAMILY PHARMACY INC,"243 E BROAD STREET, WESTFIELD, NJ 07090",NJ,7090.0,DEA,40.65251,-74.34749599999998,Dec2018,http://maps.google.com/maps?q=BARONS%20FAMILY%20PHARMACY%20INC%2C243%20E%20BROAD%20STREET%2C+WESTFIELD%2C+NJ+07090,Union,,,,,,left_only
TIFFANY NATURAL PHARMACY,"1115 SOUTH AVENUE W,, WESTFIELD, NJ 07090",NJ,7090.0,DEA,40.646515,-74.36327,Dec2018,http://maps.google.com/maps?q=TIFFANY%20NATURAL%20PHARMACY%2C1115%20SOUTH%20AVENUE%20W%2C%2C+WESTFIELD%2C+NJ+07090,Union,,,,,,left_only
CITIHEALTH RX INC,"23 COURT STREET, NEWARK, NJ 07102",NJ,7102.0,DEA,40.731,-74.17595,Dec2018,http://maps.google.com/maps?q=CITIHEALTH%20RX%20INC%2C23%20COURT%20STREET%2C+NEWARK%2C+NJ+07102,Essex,,,,,,left_only
BELLEVILLE PHARMACY,"338 WASHINGTON AVE, BELLEVILLE, NJ 07109",NJ,7109.0,DEA,40.791176,-74.15124499999997,Dec2018,http://maps.google.com/maps?q=BELLEVILLE%20PHARMACY%2C338%20WASHINGTON%20AVE%2C+BELLEVILLE%2C+NJ+07109,Essex,,,,,,left_only
"NEW JERSEY CVS PHARMACY, L.L.C.","107 EAST FIRST AVENUE, ROSELLE, NJ 07203",NJ,7203.0,DEA,40.660156,-74.263176,April2018,http://maps.google.com/maps?q=NEW%20JERSEY%20CVS%20PHARMACY%20LLC%2C107%20EAST%20FIRST%20AVENUE%2C+ROSELLE%2C+NJ+07203,Union,,,,,,left_only
"WALGREEN EASTERN CO., INC.","600 NEWARK AVE, ELIZABETH, NJ 07208",NJ,7208.0,DEA,40.67678,-74.21194,Dec2018,http://maps.google.com/maps?q=WALGREEN%20EASTERN%20CO%20INC%2C600%20NEWARK%20AVE%2C+ELIZABETH%2C+NJ+07208,Union,http://maps.google.com/maps?q=WALGREEN%20EASTERN%20CO%20INC%2C600%20NEWARK%20AVE%2C+ELIZABETH%2C+NJ+07208,NJ,7208.0,DEA,Oct2018,both
DUANE READE PHCY. DEPT.,"110 NEWARK AVENUE, JERSEY CITY, NJ 07302",NJ,7302.0,DEA,40.719868,-74.042694,Dec2018,http://maps.google.com/maps?q=DUANE%20READE%20PHCY%20DEPT%2C110%20NEWARK%20AVENUE%2C+JERSEY%20CITY%2C+NJ+07302,Hudson,,,,,,left_only
"WALGREEN EASTERN CO., INC.","2395 KENNEDY BLVD., JERSEY CITY, NJ 07304",NJ,7304.0,DEA,40.7199743,-74.08068409999998,April2018,http://maps.google.com/maps?q=WALGREEN%20EASTERN%20CO%20INC%2C2395%20KENNEDY%20BLVD.%2C+JERSEY%20CITY%2C+NJ+07304,Hudson,http://maps.google.com/maps?q=WALGREEN%20EASTERN%20CO%20INC%2C2395%20KENNEDY%20BLVD.%2C+JERSEY%20CITY%2C+NJ+07304,NJ,7304.0,DEA,Oct2018,both
"WALGREEN EASTERN CO., INC.","1561 JOHN F KENNEDY BLVD, JERSEY CITY, NJ 07305",NJ,7305.0,DEA,40.69585120000001,-74.09902695,April2018,http://maps.google.com/maps?q=WALGREEN%20EASTERN%20CO%20INC%2C1561%20JOHN%20F%20KENNEDY%20BLVD%2C+JERSEY%20CITY%2C+NJ+07305,Hudson,,,,,,left_only
"WALGREEN EASTERN CO., INC.","100 BROADWAY, ELMWOOD PARK, NJ 07407",NJ,7407.0,DEA,40.919075,-74.12550999999998,Dec2018,http://maps.google.com/maps?q=WALGREEN%20EASTERN%20CO%20INC%2C100%20BROADWAY%2C+ELMWOOD%20PARK%2C+NJ+07407,Bergen,,,,,,left_only
"NEW JERSEY CVS PHARMACY, L.L.C.","24-12 FAIR LAWN AVENUE, FAIR LAWN, NJ 07410",NJ,7410.0,DEA,40.937786,-74.1258008,April2018,http://maps.google.com/maps?q=NEW%20JERSEY%20CVS%20PHARMACY%20LLC%2C24-12%20FAIR%20LAWN%20AVENUE%2C+FAIR%20LAWN%2C+NJ+07410,Bergen,,,,,,left_only
"WALGREEN EASTERN CO., INC.","72 CRESCENT AVE, WALDWICK, NJ 07463",NJ,7463.0,DEA,41.012474,-74.139404,Dec2018,http://maps.google.com/maps?q=WALGREEN%20EASTERN%20CO%20INC%2C72%20CRESCENT%20AVE%2C+WALDWICK%2C+NJ+07463,Bergen,http://maps.google.com/maps?q=WALGREEN%20EASTERN%20CO%20INC%2C72%20CRESCENT%20AVE%2C+WALDWICK%2C+NJ+07463,NJ,7463.0,DEA,Oct2018,both
"NEW JERSEY CVS PHARMACY, L.L.C.","2440 HAMBURG TURNPIKE, WAYNE, NJ 07470",NJ,7470.0,DEA,40.959366,-74.233737,April2018,http://maps.google.com/maps?q=NEW%20JERSEY%20CVS%20PHARMACY%20LLC%2C2440%20HAMBURG%20TURNPIKE%2C+WAYNE%2C+NJ+07470,Passaic,,,,,,left_only
MILLERS OF WYCKOFF INC,"678 WYCKOFF AVE, WYCKOFF, NJ 07481",NJ,7481.0,DEA,41.013268,-74.172005,Dec2018,http://maps.google.com/maps?q=MILLERS%20OF%20WYCKOFF%20INC%2C678%20WYCKOFF%20AVE%2C+WYCKOFF%2C+NJ+07481,Bergen,http://maps.google.com/maps?q=MILLERS%20OF%20WYCKOFF%20INC%2C678%20WYCKOFF%20AVE%2C+WYCKOFF%2C+NJ+07481,NJ,7481.0,DEA,Oct2018,both
"NEW JERSEY CVS PHARMACY, L.L.C.","303 FRANKLIN AVENUE, WYCKOFF, NJ 07481",NJ,7481.0,DEA,41.01090725,-74.16662425,April2018,http://maps.google.com/maps?q=NEW%20JERSEY%20CVS%20PHARMACY%20LLC%2C303%20FRANKLIN%20AVENUE%2C+WYCKOFF%2C+NJ+07481,Bergen,,,,,,left_only
"WALGREEN EASTERN CO., INC.","639 E 18TH ST, PATERSON, NJ 07501",NJ,7501.0,DEA,40.918016566999995,-74.1556508275,April2018,http://maps.google.com/maps?q=WALGREEN%20EASTERN%20CO%20INC%2C639%20E%2018TH%20ST%2C+PATERSON%2C+NJ+07501,Passaic,http://maps.google.com/maps?q=WALGREEN%20EASTERN%20CO%20INC%2C639%20E%2018TH%20ST%2C+PATERSON%2C+NJ+07501,NJ,7501.0,DEA,Oct2018,both
COMMUNITY CARE RX NJ,"225 W. RTE 46, SUITE 4, TOTOWA, NJ 07512",NJ,7512.0,DEA,40.894764,-74.23566,Dec2018,http://maps.google.com/maps?q=COMMUNITY%20CARE%20RX%20NJ%2C225%20W.%20RTE%2046%2C+TOTOWA%2C+NJ+07512,Passaic,http://maps.google.com/maps?q=COMMUNITY%20CARE%20RX%20NJ%2C225%20W.%20RTE%2046%2C+TOTOWA%2C+NJ+07512,NJ,7512.0,DEA,Oct2018,both
"GENOA HEALTHCARE, LLC","25 E SALEM STREET, HACKENSACK, NJ 07601",NJ,7601.0,DEA,40.8851756,-74.0407691,Dec2018,http://maps.google.com/maps?q=GENOA%20HEALTHCARE%20LLC%2C25%20E%20SALEM%20STREET%2C+HACKENSACK%2C+NJ+07601,Bergen,http://maps.google.com/maps?q=GENOA%20HEALTHCARE%20LLC%2C25%20E%20SALEM%20STREET%2C+HACKENSACK%2C+NJ+07601,NJ,7601.0,DEA,Oct2018,both
BAYSHORE PHARMACY,"2 BAYSHORE PLAZA, HWY 36, ATLANTIC HIGHLANDS, NJ 07716",NJ,7716.0,DEA,40.4091349,-74.0418662,Dec2018,http://maps.google.com/maps?q=BAYSHORE%20PHARMACY%2C2%20BAYSHORE%20PLAZA%2C+ATLANTIC%20HIGHLANDS%2C+NJ+07716,Monmouth,,,,,,left_only
MIDDLETOWN FAMILY PHARMACY,"877 MAIN ST, BELFORD, NJ 07718",NJ,7718.0,DEA,40.415817,-74.09402299999998,April2018,http://maps.google.com/maps?q=MIDDLETOWN%20FAMILY%20PHARMACY%2C877%20MAIN%20ST%2C+BELFORD%2C+NJ+07718,Monmouth,http://maps.google.com/maps?q=MIDDLETOWN%20FAMILY%20PHARMACY%2C877%20MAIN%20ST%2C+BELFORD%2C+NJ+07718,NJ,7718.0,DEA,Oct2018,both
"NEW JERSEY CVS PHARMACY, L.L.C.","138 VILLAGE CENTER DR, RAINTREE S/C, FREEHOLD, NJ 07728",NJ,7728.0,DEA,40.24009,-74.30778000000002,April2018,http://maps.google.com/maps?q=NEW%20JERSEY%20CVS%20PHARMACY%20LLC%2C138%20VILLAGE%20CENTER%20DR%2C+FREEHOLD%2C+NJ+07728,Monmouth,,,,,,left_only
"WALGREEN EASTERN CO., INC.","425 W MAIN ST, FREEHOLD, NJ 07728",NJ,7728.0,DEA,40.24,-74.30523000000002,April2018,http://maps.google.com/maps?q=WALGREEN%20EASTERN%20CO%20INC%2C425%20W%20MAIN%20ST%2C+FREEHOLD%2C+NJ+07728,Monmouth,http://maps.google.com/maps?q=WALGREEN%20EASTERN%20CO%20INC%2C425%20W%20MAIN%20ST%2C+FREEHOLD%2C+NJ+07728,NJ,7728.0,DEA,Oct2018,both
"WALGREEN EASTERN CO., INC.","1905 CORLIES AVE, NEPTUNE, NJ 07753",NJ,7753.0,DEA,40.2080558,-74.0366599,Dec2018,http://maps.google.com/maps?q=WALGREEN%20EASTERN%20CO%20INC%2C1905%20CORLIES%20AVE%2C+NEPTUNE%2C+NJ+07753,Monmouth,,,,,,left_only
"WALGREEN EASTERN CO., INC.","216 STATE ROUTE 36, WEST LONG BRANCH, NJ 07764",NJ,7764.0,DEA,40.295222,-74.0300757,April2018,http://maps.google.com/maps?q=WALGREEN%20EASTERN%20CO%20INC%2C216%20STATE%20ROUTE%2036%2C+WEST%20LONG%20BRANCH%2C+NJ+07764,Monmouth,http://maps.google.com/maps?q=WALGREEN%20EASTERN%20CO%20INC%2C216%20STATE%20ROUTE%2036%2C+WEST%20LONG%20BRANCH%2C+NJ+07764,NJ,7764.0,DEA,Oct2018,both
MADISON PHARMACY,"66 MAIN ST, MADISON, NJ 07940",NJ,7940.0,DEA,40.75894,-74.4153,Dec2018,http://maps.google.com/maps?q=MADISON%20PHARMACY%2C66%20MAIN%20ST%2C+MADISON%2C+NJ+07940,Morris,http://maps.google.com/maps?q=MADISON%20PHARMACY%2C66%20MAIN%20ST%2C+MADISON%2C+NJ+07940,NJ,7940.0,DEA,Oct2018,both
"NEW JERSEY CVS PHARMACY, L.L.C.","100 SPRINGDALE RD, CHERRY HILL, NJ 08003",NJ,8003.0,DEA,39.862045,-74.97452,April2018,http://maps.google.com/maps?q=NEW%20JERSEY%20CVS%20PHARMACY%20LLC%2C100%20SPRINGDALE%20RD%2C+CHERRY%20HILL%2C+NJ+08003,Camden,,,,,,left_only
PENN MEDICINE CHERRY HILL PHARMACY DEPARTMENT,"1865 ROUTE 70 EAST, CHERRY HILL, NJ 08003",NJ,8003.0,DEA,39.9036129,-74.9742809,April2018,http://maps.google.com/maps?q=PENN%20MEDICINE%20CHERRY%20HILL%20PHARMACY%20DEPARTMENT%2C1865%20ROUTE%2070%20EAST%2C+CHERRY%20HILL%2C+NJ+08003,Camden,,,,,,left_only
"NEW JERSEY CVS PHARMACY, L.L.C.","600 KINGS HWY N, CHERRY HILL, NJ 08034",NJ,8034.0,DEA,39.91937520000001,-75.0129436,April2018,http://maps.google.com/maps?q=NEW%20JERSEY%20CVS%20PHARMACY%20LLC%2C600%20KINGS%20HWY%20N%2C+CHERRY%20HILL%2C+NJ+08034,Camden,,,,,,left_only
"NEW JERSEY CVS PHARMACY, L.L.C.","3110 ROUTE 38, MOUNT LAUREL, NJ 08054",NJ,8054.0,DEA,39.9701777,-74.8755333,April2018,http://maps.google.com/maps?q=NEW%20JERSEY%20CVS%20PHARMACY%20LLC%2C3110%20ROUTE%2038%2C+MOUNT%20LAUREL%2C+NJ+08054,Burlington,,,,,,left_only
OMNICARE OF SOUTHERN NEW JERSEY,"40 TWOSOME DRIVE UNIT 1, MOORESTOWN, NJ 08057",NJ,8057.0,DEA,39.978016,-74.97649,Dec2018,http://maps.google.com/maps?q=OMNICARE%20OF%20SOUTHERN%20NEW%20JERSEY%2C40%20TWOSOME%20DRIVE%20UNIT%201%2C+MOORESTOWN%2C+NJ+08057,Burlington,,,,,,left_only
"NEW JERSEY CVS PHARMACY, L.L.C.","24 S. BLACK HORSE PIKE, MOUNT EPHRAIM, NJ 08059",NJ,8059.0,DEA,39.8805684,-75.0869195,April2018,http://maps.google.com/maps?q=NEW%20JERSEY%20CVS%20PHARMACY%20LLC%2C24%20S.%20BLACK%20HORSE%20PIKE%2C+MOUNT%20EPHRAIM%2C+NJ+08059,Camden,,,,,,left_only
"NEW JERSEY CVS PHARMACY, L.L.C.","307 EGG HARBOR RD, SEWELL, NJ 08080",NJ,8080.0,DEA,39.76399,-75.08548,April2018,http://maps.google.com/maps?q=NEW%20JERSEY%20CVS%20PHARMACY%20LLC%2C307%20EGG%20HARBOR%20RD%2C+SEWELL%2C+NJ+08080,Gloucester,,,,,,left_only
"NEW JERSEY CVS PHARMACY, L.L.C.","25 EAST RED BANK AVENUE, WOODBURY, NJ 08096",NJ,8096.0,DEA,39.8430336305,-75.1489143245,April2018,http://maps.google.com/maps?q=NEW%20JERSEY%20CVS%20PHARMACY%20LLC%2C25%20EAST%20RED%20BANK%20AVENUE%2C+WOODBURY%2C+NJ+08096,Gloucester,,,,,,left_only
"WALGREEN EASTERN CO., INC.","4601 WESTFIELD AVENUE, PENNSAUKEN, NJ 08110",NJ,8110.0,DEA,39.956932,-75.06808000000002,Dec2018,http://maps.google.com/maps?q=WALGREEN%20EASTERN%20CO%20INC%2C4601%20WESTFIELD%20AVENUE%2C+PENNSAUKEN%2C+NJ+08110,Camden,http://maps.google.com/maps?q=WALGREEN%20EASTERN%20CO%20INC%2C4601%20WESTFIELD%20AVENUE%2C+PENNSAUKEN%2C+NJ+08110,NJ,8110.0,DEA,Oct2018,both
CUREXA,"236 E JIMMIE LEEDS ROAD, SUITE C, GALLOWAY, NJ 08205",NJ,8205.0,DEA,39.4688156,-74.5038888,Dec2018,http://maps.google.com/maps?q=CUREXA%2C236%20E%20JIMMIE%20LEEDS%20ROAD%2C+GALLOWAY%2C+NJ+08205,Atlantic,http://maps.google.com/maps?q=CUREXA%2C236%20E%20JIMMIE%20LEEDS%20ROAD%2C+GALLOWAY%2C+NJ+08205,NJ,8205.0,DEA,Oct2018,both
"NEW JERSEY CVS PHARMACY, L.L.C.","6815 TILTON ROAD, EGG HARBOR TWP, NJ 08234",NJ,8234.0,DEA,39.432325,-74.5795,April2018,http://maps.google.com/maps?q=NEW%20JERSEY%20CVS%20PHARMACY%20LLC%2C6815%20TILTON%20ROAD%2C+EGG%20HARBOR%20TWP%2C+NJ+08234,Atlantic,,,,,,left_only
"WALGREEN EASTERN CO., INC.","2247 OCEAN HEIGHTS AVE., EGG HARBOR TOWNSHIP, NJ 08234",NJ,8234.0,DEA,39.3643360583,-74.619611228,April2018,http://maps.google.com/maps?q=WALGREEN%20EASTERN%20CO%20INC%2C2247%20OCEAN%20HEIGHTS%20AVE.%2C+EGG%20HARBOR%20TOWNSHIP%2C+NJ+08234,Atlantic,http://maps.google.com/maps?q=WALGREEN%20EASTERN%20CO%20INC%2C2247%20OCEAN%20HEIGHTS%20AVE.%2C+EGG%20HARBOR%20TOWNSHIP%2C+NJ+08234,NJ,8234.0,DEA,Oct2018,both
"WALGREEN EASTERN CO., INC.","1111 NORTH HIGH STREET, MILLVILLE, NJ 08332",NJ,8332.0,DEA,39.408802,-75.03956,Dec2018,http://maps.google.com/maps?q=WALGREEN%20EASTERN%20CO%20INC%2C1111%20NORTH%20HIGH%20STREET%2C+MILLVILLE%2C+NJ+08332,Cumberland,,,,,,left_only
USAF- 87TH MED LOGISTICS/SGSM,"3458 NEELY ROAD, MC GUIRE AFB, NJ 08641",NJ,8641.0,DEA,40.031982,-74.612387,Dec2018,http://maps.google.com/maps?q=USAF%20TH%20MED%20LOGISTICSSGSM%2C3458%20NEELY%20ROAD%2C+MC%20GUIRE%20AFB%2C+NJ+08641,Burlington,http://maps.google.com/maps?q=USAF%20TH%20MED%20LOGISTICSSGSM%2C3458%20NEELY%20ROAD%2C+MC%20GUIRE%20AFB%2C+NJ+08641,NJ,8641.0,DEA,Oct2018,both
"NEW JERSEY CVS PHARMACY, L.L.C.","1099 RTE. 33 HAMILTON SQUARE, HAMILTON, NJ 08690",NJ,8690.0,DEA,40.22847,-74.66676,April2018,http://maps.google.com/maps?q=NEW%20JERSEY%20CVS%20PHARMACY%20LLC%2C1099%20RTE.%2033%20HAMILTON%20SQUARE%2C+HAMILTON%2C+NJ+08690,Mercer,,,,,,left_only
"WALGREEN EASTERN CO., INC.","1096 ROUTE 33, HAMILTON, NJ 08690",NJ,8690.0,DEA,40.228292,-74.6674065,Dec2018,http://maps.google.com/maps?q=WALGREEN%20EASTERN%20CO%20INC%2C1096%20ROUTE%2033%2C+HAMILTON%2C+NJ+08690,Mercer,,,,,,left_only
"WALGREEN EASTERN CO., INC.","2479 CHURCH ROAD, TOMS RIVER, NJ 08753",NJ,8753.0,DEA,40.0161,-74.14714000000002,April2018,http://maps.google.com/maps?q=WALGREEN%20EASTERN%20CO%20INC%2C2479%20CHURCH%20ROAD%2C+TOMS%20RIVER%2C+NJ+08753,Ocean,http://maps.google.com/maps?q=WALGREEN%20EASTERN%20CO%20INC%2C2479%20CHURCH%20ROAD%2C+TOMS%20RIVER%2C+NJ+08753,NJ,8753.0,DEA,Oct2018,both
"NEW JERSEY CVS PHARMACY, L.L.C.","51 BANANIER DR., TOMS RIVER, NJ 08755",NJ,8755.0,DEA,39.975357,-74.24790899999998,April2018,http://maps.google.com/maps?q=NEW%20JERSEY%20CVS%20PHARMACY%20LLC%2C51%20BANANIER%20DR.%2C+TOMS%20RIVER%2C+NJ+08755,Ocean,,,,,,left_only
"WALGREEN EASTERN CO., INC.","1311 ROUTE 37 W, TOMS RIVER, NJ 08755",NJ,8755.0,DEA,39.983612,-74.255732,Dec2018,http://maps.google.com/maps?q=WALGREEN%20EASTERN%20CO%20INC%2C1311%20ROUTE%2037%20W%2C+TOMS%20RIVER%2C+NJ+08755,Ocean,,,,,,left_only
"WALGREEN EASTERN CO., INC.","2353 LAKEWOOD RD, TOMS RIVER, NJ 08755",NJ,8755.0,DEA,39.974694,-74.20648800000002,April2018,http://maps.google.com/maps?q=WALGREEN%20EASTERN%20CO%20INC%2C2353%20LAKEWOOD%20RD%2C+TOMS%20RIVER%2C+NJ+08755,Ocean,http://maps.google.com/maps?q=WALGREEN%20EASTERN%20CO%20INC%2C2353%20LAKEWOOD%20RD%2C+TOMS%20RIVER%2C+NJ+08755,NJ,8755.0,DEA,Oct2018,both
"WALGREEN EASTERN CO., INC.","421 RYDERS LANE, EAST BRUNSWICK, NJ 08816",NJ,8816.0,DEA,40.43637,-74.422714,Dec2018,http://maps.google.com/maps?q=WALGREEN%20EASTERN%20CO%20INC%2C421%20RYDERS%20LANE%2C+EAST%20BRUNSWICK%2C+NJ+08816,Middlesex,http://maps.google.com/maps?q=WALGREEN%20EASTERN%20CO%20INC%2C421%20RYDERS%20LANE%2C+EAST%20BRUNSWICK%2C+NJ+08816,NJ,8816.0,DEA,Oct2018,both
DEVINES PHARMACY INC,"1949 OAK TREE ROAD, EDISON, NJ 08820",NJ,8820.0,DEA,40.57402,-74.36478000000002,Dec2018,http://maps.google.com/maps?q=DEVINES%20PHARMACY%20INC%2C1949%20OAK%20TREE%20ROAD%2C+EDISON%2C+NJ+08820,Middlesex,,,,,,left_only
"WALGREEN EASTERN CO., INC.","520 CONVERY BLVD., PERTH AMBOY, NJ 08861",NJ,8861.0,DEA,40.5204,-74.28238,Dec2018,http://maps.google.com/maps?q=WALGREEN%20EASTERN%20CO%20INC%2C520%20CONVERY%20BLVD.%2C+PERTH%20AMBOY%2C+NJ+08861,Middlesex,http://maps.google.com/maps?q=WALGREEN%20EASTERN%20CO%20INC%2C520%20CONVERY%20BLVD.%2C+PERTH%20AMBOY%2C+NJ+08861,NJ,8861.0,DEA,Oct2018,both
"WALGREEN EASTERN CO., INC.","129 SOMERSET ST, SOMERVILLE, NJ 08876",NJ,8876.0,DEA,40.569687,-74.624626,Dec2018,http://maps.google.com/maps?q=WALGREEN%20EASTERN%20CO%20INC%2C129%20SOMERSET%20ST%2C+SOMERVILLE%2C+NJ+08876,Somerset,,,,,,left_only
MEDLIFE PHARMACY,"2000 RT 27 NORTH, NORTH BRUNSWICK, NJ 08902",NJ,8902.0,DEA,40.4594249,-74.508487,Dec2018,http://maps.google.com/maps?q=MEDLIFE%20PHARMACY%2C2000%20RT%20%20%2027%20NORTH%2C+NORTH%20BRUNSWICK%2C+NJ+08902,Middlesex,http://maps.google.com/maps?q=MEDLIFE%20PHARMACY%2C2000%20RT%20%20%2027%20NORTH%2C+NORTH%20BRUNSWICK%2C+NJ+08902,NJ,8902.0,DEA,Oct2018,both
"CVS ALBANY, L.L.C.","253 FIRST AVENUE, NEW YORK, NY 10003",NY,10003.0,DEA,40.7319529,-73.98473249999998,April2018,http://maps.google.com/maps?q=CVS%20ALBANY%20LLC%2C253%20FIRST%20AVENUE%2C+NEW%20YORK%2C+NY+10003,New York,http://maps.google.com/maps?q=CVS%20ALBANY%20LLC%2C253%20FIRST%20AVENUE%2C+NEW%20YORK%2C+NY+10003,NY,10003.0,DEA,Oct2018,both
DUANE READE,"1 UNION SQ SOUTH, NEW YORK, NY 10003",NY,10003.0,DEA,40.735817,-73.991135,Dec2018,http://maps.google.com/maps?q=DUANE%20READE%2C1%20UNION%20SQ%20SOUTH%2C+NEW%20YORK%2C+NY+10003,New York,,,,,,left_only
DUANE READE,"40 WALL STREET, NEW YORK, NY 10005",NY,10005.0,DEA,40.706593,-74.00981,Dec2018,http://maps.google.com/maps?q=DUANE%20READE%2C40%20WALL%20STREET%2C+NEW%20YORK%2C+NY+10005,New York,http://maps.google.com/maps?q=DUANE%20READE%2C40%20WALL%20STREET%2C+NEW%20YORK%2C+NY+10005,NY,10005.0,DEA,Oct2018,both
"WALGREEN EASTERN CO., INC.","298 FIRST AVE, NEW YORK, NY 10009",NY,10009.0,DEA,40.733105,-73.98121,Dec2018,http://maps.google.com/maps?q=WALGREEN%20EASTERN%20CO%20INC%2C298%20FIRST%20AVE%2C+NEW%20YORK%2C+NY+10009,New York,http://maps.google.com/maps?q=WALGREEN%20EASTERN%20CO%20INC%2C298%20FIRST%20AVE%2C+NEW%20YORK%2C+NY+10009,NY,10009.0,DEA,Oct2018,both
DUANE READE,"71 WEST 23RD STREET, NEW YORK, NY 10010",NY,10010.0,DEA,40.742496,-73.9918,Dec2018,http://maps.google.com/maps?q=DUANE%20READE%2C71%20WEST%2023RD%20STREET%2C+NEW%20YORK%2C+NY+10010,New York,http://maps.google.com/maps?q=DUANE%20READE%2C71%20WEST%2023RD%20STREET%2C+NEW%20YORK%2C+NY+10010,NY,10010.0,DEA,Oct2018,both
PROHEALTH PHARMACY INC,"385 A/B SECOND AVE, NEW YORK, NY 10010",NY,10010.0,DEA,40.73753,-73.9835777,April2018,http://maps.google.com/maps?q=PROHEALTH%20PHARMACY%20INC%2C385%20A/B%20%20SECOND%20AVE%2C+NEW%20YORK%2C+NY+10010,New York,http://maps.google.com/maps?q=PROHEALTH%20PHARMACY%20INC%2C385%20A/B%20%20SECOND%20AVE%2C+NEW%20YORK%2C+NY+10010,NY,10010.0,DEA,Oct2018,both
DUANE READE,"155 EAST 34TH STREET, NEW YORK, NY 10016",NY,10016.0,DEA,40.746193,-73.97919,Dec2018,http://maps.google.com/maps?q=DUANE%20READE%2C155%20EAST%2034TH%20STREET%2C+NEW%20YORK%2C+NY+10016,New York,,,,,,left_only
"CVS ALBANY, L.L.C.","150 EAST 42ND ST., NEW YORK, NY 10017",NY,10017.0,DEA,40.7510405,-73.97552209999998,April2018,http://maps.google.com/maps?q=CVS%20ALBANY%20LLC%2C150%20EAST%2042ND%20ST.%2C+NEW%20YORK%2C+NY+10017,New York,,,,,,left_only
"CVS ALBANY, L.L.C.","241 WEST 57TH STREET, NEW YORK, NY 10019",NY,10019.0,DEA,40.766438,-73.98198599999998,April2018,http://maps.google.com/maps?q=CVS%20ALBANY%20LLC%2C241%20WEST%2057TH%20STREET%2C+NEW%20YORK%2C+NY+10019,New York,http://maps.google.com/maps?q=CVS%20ALBANY%20LLC%2C241%20WEST%2057TH%20STREET%2C+NEW%20YORK%2C+NY+10019,NY,10019.0,DEA,Oct2018,both
DUANE READE,"51 WEST 51ST STREET, NEW YORK, NY 10019",NY,10019.0,DEA,40.760914,-73.98085999999998,Dec2018,http://maps.google.com/maps?q=DUANE%20READE%2C51%20WEST%2051ST%20STREET%2C+NEW%20YORK%2C+NY+10019,New York,http://maps.google.com/maps?q=DUANE%20READE%2C51%20WEST%2051ST%20STREET%2C+NEW%20YORK%2C+NY+10019,NY,10019.0,DEA,Oct2018,both
"CVS ALBANY, L.L.C.","1396 SECOND AVENUE, NEW YORK, NY 10021",NY,10021.0,DEA,40.7689905,-73.9600525,April2018,http://maps.google.com/maps?q=CVS%20ALBANY%20LLC%2C1396%20SECOND%20AVENUE%2C+NEW%20YORK%2C+NY+10021,New York,,,,,,left_only
"CVS ALBANY, L.L.C.","630 LEXINGTON AVENUE, NEW YORK, NY 10022",NY,10022.0,DEA,40.7587625,-73.97093290000002,April2018,http://maps.google.com/maps?q=CVS%20ALBANY%20LLC%2C630%20LEXINGTON%20AVENUE%2C+NEW%20YORK%2C+NY+10022,New York,http://maps.google.com/maps?q=CVS%20ALBANY%20LLC%2C630%20LEXINGTON%20AVENUE%2C+NEW%20YORK%2C+NY+10022,NY,10022.0,DEA,Oct2018,both
DUANE READE,"949 THIRD AVENUE, NEW YORK, NY 10022",NY,10022.0,DEA,40.76014,-73.9676,Dec2018,http://maps.google.com/maps?q=DUANE%20READE%2C949%20THIRD%20AVENUE%2C+NEW%20YORK%2C+NY+10022,New York,http://maps.google.com/maps?q=DUANE%20READE%2C949%20THIRD%20AVENUE%2C+NEW%20YORK%2C+NY+10022,NY,10022.0,DEA,Oct2018,both
"CVS ALBANY, L.L.C.","540 AMSTERDAM AVENUE, NEW YORK, NY 10024",NY,10024.0,DEA,40.7881307,-73.97495450000002,April2018,http://maps.google.com/maps?q=CVS%20ALBANY%20LLC%2C540%20AMSTERDAM%20AVENUE%2C+NEW%20YORK%2C+NY+10024,New York,http://maps.google.com/maps?q=CVS%20ALBANY%20LLC%2C540%20AMSTERDAM%20AVENUE%2C+NEW%20YORK%2C+NY+10024,NY,10024.0,DEA,Oct2018,both
DUANE READE,"2522 BROADWAY, NEW YORK, NY 10025",NY,10025.0,DEA,40.79343400000001,-73.97266,Dec2018,http://maps.google.com/maps?q=DUANE%20READE%2C2522%20BROADWAY%2C+NEW%20YORK%2C+NY+10025,New York,http://maps.google.com/maps?q=DUANE%20READE%2C2522%20BROADWAY%2C+NEW%20YORK%2C+NY+10025,NY,10025.0,DEA,Oct2018,both
DUANE READE,"775 COLUMBUS AVENUE, NEW YORK, NY 10025",NY,10025.0,DEA,40.79406,-73.96663000000002,Dec2018,http://maps.google.com/maps?q=DUANE%20READE%2C775%20COLUMBUS%20AVENUE%2C+NEW%20YORK%2C+NY+10025,New York,http://maps.google.com/maps?q=DUANE%20READE%2C775%20COLUMBUS%20AVENUE%2C+NEW%20YORK%2C+NY+10025,NY,10025.0,DEA,Oct2018,both
ISLA DRUG STORES INC,"1994 THIRD AVE, NEW YORK, NY 10029",NY,10029.0,DEA,40.79395170000001,-73.9454497,April2018,http://maps.google.com/maps?q=ISLA%20DRUG%20STORES%20INC%2C1994%20THIRD%20AVE%2C+NEW%20YORK%2C+NY+10029,New York,,,,,,left_only
AMI PHARMACY,"4180 BROADWAY, NEW YORK, NY 10033",NY,10033.0,DEA,40.847905,-73.93768309999999,April2018,http://maps.google.com/maps?q=AMI%20PHARMACY%2C4180%20BROADWAY%2C+NEW%20YORK%2C+NY+10033,New York,http://maps.google.com/maps?q=AMI%20PHARMACY%2C4180%20BROADWAY%2C+NEW%20YORK%2C+NY+10033,NY,10033.0,DEA,Oct2018,both
DUANE READE,"661 8TH AVENUE, NEW YORK, NY 10036",NY,10036.0,DEA,40.757275,-73.989784,Dec2018,http://maps.google.com/maps?q=DUANE%20READE%2C661%208TH%20AVENUE%2C+NEW%20YORK%2C+NY+10036,New York,http://maps.google.com/maps?q=DUANE%20READE%2C661%208TH%20AVENUE%2C+NEW%20YORK%2C+NY+10036,NY,10036.0,DEA,Oct2018,both
ESCO DRUG CO INC,"687 9TH AVE, NEW YORK, NY 10036",NY,10036.0,DEA,40.7619376,-73.9904637742,April2018,http://maps.google.com/maps?q=ESCO%20DRUG%20CO%20INC%2C687%209TH%20AVE%2C+NEW%20YORK%2C+NY+10036,New York,http://maps.google.com/maps?q=ESCO%20DRUG%20CO%20INC%2C687%209TH%20AVE%2C+NEW%20YORK%2C+NY+10036,NY,10036.0,DEA,Oct2018,both
LIFE PHARMA II INC,"471 LENOX AVENUE, NEW YORK, NY 10037",NY,10037.0,DEA,40.7052516875,-73.5969090625,April2018,http://maps.google.com/maps?q=LIFE%20PHARMA%20II%20INC%2C471%20LENOX%20AVENUE%2C+NEW%20YORK%2C+NY+10037,Nassau,http://maps.google.com/maps?q=LIFE%20PHARMA%20II%20INC%2C471%20LENOX%20AVENUE%2C+NEW%20YORK%2C+NY+10037,NY,10037.0,DEA,Oct2018,both
DUANE READE,"1498 YORK AVENUE, NEW YORK, NY 10075",NY,10075.0,DEA,40.771523,-73.95031999999998,Dec2018,http://maps.google.com/maps?q=DUANE%20READE%2C1498%20YORK%20AVENUE%2C+NEW%20YORK%2C+NY+10075,New York,,,,,,left_only
DUANE READE,"1231 MADISON AVENUE, NEW YORK, NY 10128",NY,10128.0,DEA,40.782642,-73.9575,Dec2018,http://maps.google.com/maps?q=DUANE%20READE%2C1231%20MADISON%20AVENUE%2C+NEW%20YORK%2C+NY+10128,New York,,,,,,left_only
ST GEORGE PHARMACY,"99 STUYVESANT PL, STATEN ISLAND, NY 10301",NY,10301.0,DEA,40.643895576300004,-74.0775042712,April2018,http://maps.google.com/maps?q=ST%20GEORGE%20PHARMACY%2C99%20STUYVESANT%20PL%2C+STATEN%20ISLAND%2C+NY+10301,Richmond,,,,,,left_only
VICTORY RX LLC,"395 FOREST AVENUE, STATEN ISLAND, NY 10301",NY,10301.0,DEA,40.631035,-74.10191999999998,Dec2018,http://maps.google.com/maps?q=VICTORY%20RX%20LLC%2C395%20FOREST%20AVENUE%2C+STATEN%20ISLAND%2C+NY+10301,Richmond,,,,,,left_only
DONGAN HILLS PHARMACY,"1560 RICHMOND RD, STATEN ISLAND, NY 10304",NY,10304.0,DEA,40.59187,-74.10095,Dec2018,http://maps.google.com/maps?q=DONGAN%20HILLS%20PHARMACY%2C1560%20RICHMOND%20RD%2C+STATEN%20ISLAND%2C+NY+10304,Richmond,,,,,,left_only
"CVS ALBANY, L.L.C.","1361 HYLAN BLVD., STATEN ISLAND, NY 10305",NY,10305.0,DEA,40.5985963,-74.0792412,April2018,http://maps.google.com/maps?q=CVS%20ALBANY%20LLC%2C1361%20HYLAN%20BLVD.%2C+STATEN%20ISLAND%2C+NY+10305,Richmond,,,,,,left_only
OCEAN BREEZE ASSOCIATES LLC,"1817 HYLAN BOULEVARD, STATEN ISLAND, NY 10305",NY,10305.0,DEA,40.584915,-74.09384,Dec2018,http://maps.google.com/maps?q=OCEAN%20BREEZE%20ASSOCIATES%20LLC%2C1817%20HYLAN%20BOULEVARD%2C+STATEN%20ISLAND%2C+NY+10305,Richmond,,,,,,left_only
"CVS ALBANY, L.L.C.","640 ARTHUR KILL ROAD, STATEN ISLAND, NY 10308",NY,10308.0,DEA,40.560835,-74.1623586667,April2018,http://maps.google.com/maps?q=CVS%20ALBANY%20LLC%2C640%20ARTHUR%20KILL%20ROAD%2C+STATEN%20ISLAND%2C+NY+10308,Richmond,,,,,,left_only
SUPER HEALTH PHARMACY LLC,"6400 AMBOY ROAD, STATEN ISLAND, NY 10309",NY,10309.0,DEA,40.521103,-74.21725500000002,Dec2018,http://maps.google.com/maps?q=SUPER%20HEALTH%20PHARMACY%20LLC%2C6400%20AMBOY%20ROAD%2C+STATEN%20ISLAND%2C+NY+10309,Richmond,,,,,,left_only
"CVS ALBANY, L.L.C.","812 FOREST AVE., STATEN ISLAND, NY 10310",NY,10310.0,DEA,40.62882000000001,-74.1163588,April2018,http://maps.google.com/maps?q=CVS%20ALBANY%20LLC%2C812%20FOREST%20AVE.%2C+STATEN%20ISLAND%2C+NY+10310,Richmond,,,,,,left_only
DELCO DRUGS & SPECIALTY PHARMACY INC.,"3833 RICHMOND AVE, STATEN ISLAND, NY 10312",NY,10312.0,DEA,40.544495,-74.165405,Dec2018,http://maps.google.com/maps?q=DELCO%20DRUGS%20%20SPECIALTY%20PHARMACY%20INC%2C3833%20RICHMOND%20AVE%2C+STATEN%20ISLAND%2C+NY+10312,Richmond,,,,,,left_only
"CVS ALBANY, L.L.C.","1933 VICTORY BLVD., STATEN ISLAND, NY 10314",NY,10314.0,DEA,40.61293875,-74.1287158491,April2018,http://maps.google.com/maps?q=CVS%20ALBANY%20LLC%2C1933%20VICTORY%20BLVD.%2C+STATEN%20ISLAND%2C+NY+10314,Richmond,,,,,,left_only
"WALGREEN EASTERN CO., INC.","1551 RICHMOND AVE, STATEN ISLAND, NY 10314",NY,10314.0,DEA,40.610348,-74.16014,Dec2018,http://maps.google.com/maps?q=WALGREEN%20EASTERN%20CO%20INC%2C1551%20RICHMOND%20AVE%2C+STATEN%20ISLAND%2C+NY+10314,Richmond,,,,,,left_only
RND PHARMACY INC,"52 WEST BURNSIDE AVE, BRONX, NY 10453",NY,10453.0,DEA,40.8540154,-73.909798,April2018,http://maps.google.com/maps?q=RND%20PHARMACY%20INC%2C52%20WEST%20BURNSIDE%20AVE%2C+BRONX%2C+NY+10453,Bronx,http://maps.google.com/maps?q=RND%20PHARMACY%20INC%2C52%20WEST%20BURNSIDE%20AVE%2C+BRONX%2C+NY+10453,NY,10453.0,DEA,Oct2018,both
J A K PHARMA INC,"2343 ARTHUR AVENUE, BRONX, NY 10458",NY,10458.0,DEA,40.854145,-73.88882,Dec2018,http://maps.google.com/maps?q=J%20A%20K%20PHARMA%20INC%2C2343%20ARTHUR%20AVENUE%2C+BRONX%2C+NY+10458,Bronx,http://maps.google.com/maps?q=J%20A%20K%20PHARMA%20INC%2C2343%20ARTHUR%20AVENUE%2C+BRONX%2C+NY+10458,NY,10458.0,DEA,Oct2018,both
MT CARMEL PHARMACY,"705 EAST 187TH STREET, BRONX, NY 10458",NY,10458.0,DEA,40.8542051,-73.8841858,April2018,http://maps.google.com/maps?q=MT%20CARMEL%20PHARMACY%2C705%20EAST%20187TH%20STREET%2C+BRONX%2C+NY+10458,Bronx,http://maps.google.com/maps?q=MT%20CARMEL%20PHARMACY%2C705%20EAST%20187TH%20STREET%2C+BRONX%2C+NY+10458,NY,10458.0,DEA,Oct2018,both
"CVS ALBANY, L.L.C.","1916 WILLIAMSBRIDGE ROAD, BRONX, NY 10461",NY,10461.0,DEA,40.8526934694,-73.8531065918,April2018,http://maps.google.com/maps?q=CVS%20ALBANY%20LLC%2C1916%20WILLIAMSBRIDGE%20ROAD%2C+BRONX%2C+NY+10461,Bronx,,,,,,left_only
CASTLE TOPP PHARMACY CORP.,"1370A CASTLE HILL AVE, BRONX, NY 10462",NY,10462.0,DEA,40.83521,-73.85194,Dec2018,http://maps.google.com/maps?q=CASTLE%20TOPP%20PHARMACY%20CORP%2C1370A%20CASTLE%20HILL%20AVE%2C+BRONX%2C+NY+10462,Bronx,,,,,,left_only
SEA. J PHARMACY CORP,"765-767 MORRIS PARK AVE, BRONX, NY 10462",NY,10462.0,DEA,40.8457899,-73.8638044,April2018,http://maps.google.com/maps?q=SEA%20J%20PHARMACY%20CORP%2C765-767%20MORRIS%20PARK%20AVE%2C+BRONX%2C+NY+10462,Bronx,http://maps.google.com/maps?q=SEA%20J%20PHARMACY%20CORP%2C765-767%20MORRIS%20PARK%20AVE%2C+BRONX%2C+NY+10462,NY,10462.0,DEA,Oct2018,both
"WALGREEN EASTERN CO., INC.","5564 BROADWAY, BRONX, NY 10463",NY,10463.0,DEA,40.87880300000001,-73.904854,Dec2018,http://maps.google.com/maps?q=WALGREEN%20EASTERN%20CO%20INC%2C5564%20BROADWAY%2C+BRONX%2C+NY+10463,Bronx,http://maps.google.com/maps?q=WALGREEN%20EASTERN%20CO%20INC%2C5564%20BROADWAY%2C+BRONX%2C+NY+10463,NY,10463.0,DEA,Oct2018,both
"CVS ALBANY, L.L.C.","3775 E. TREMONT AVE., BRONX, NY 10465",NY,10465.0,DEA,40.82557075,-73.8204975078,April2018,http://maps.google.com/maps?q=CVS%20ALBANY%20LLC%2C3775%20E.%20TREMONT%20AVE.%2C+BRONX%2C+NY+10465,Bronx,http://maps.google.com/maps?q=CVS%20ALBANY%20LLC%2C3775%20E.%20TREMONT%20AVE.%2C+BRONX%2C+NY+10465,NY,10465.0,DEA,Oct2018,both
ALLURE SPECIALTY PHARMACY,"4377 BRONX BLVD, BRONX, NY 10466",NY,10466.0,DEA,40.8992029048,-73.8583401429,April2018,http://maps.google.com/maps?q=ALLURE%20SPECIALTY%20PHARMACY%2C4377%20BRONX%20BLVD%2C+BRONX%2C+NY+10466,Bronx,http://maps.google.com/maps?q=ALLURE%20SPECIALTY%20PHARMACY%2C4377%20BRONX%20BLVD%2C+BRONX%2C+NY+10466,NY,10466.0,DEA,Oct2018,both
AVIGHNA RX LLC,"7 BEDFORD PARK BLVD, BRONX, NY 10468",NY,10468.0,DEA,40.8733277,-73.889023,April2018,http://maps.google.com/maps?q=AVIGHNA%20RX%20LLC%2C7%20BEDFORD%20PARK%20BLVD%2C+BRONX%2C+NY+10468,Bronx,http://maps.google.com/maps?q=AVIGHNA%20RX%20LLC%2C7%20BEDFORD%20PARK%20BLVD%2C+BRONX%2C+NY+10468,NY,10468.0,DEA,Oct2018,both
KINGSBRIDGE PHARMACY CORP.,"145 W. KINGSBRIDGE RD., BRONX, NY 10468",NY,10468.0,DEA,40.8694288,-73.90329100000002,April2018,http://maps.google.com/maps?q=KINGSBRIDGE%20PHARMACY%20CORP%2C145%20W.%20KINGSBRIDGE%20RD.%2C+BRONX%2C+NY+10468,Bronx,,,,,,left_only
DRUGDEX PHARMACY INC,"1632 BRUCKNER BOULEVARD, BRONX, NY 10473",NY,10473.0,DEA,40.824039,-73.873011,April2018,http://maps.google.com/maps?q=DRUGDEX%20PHARMACY%20INC%2C1632%20BRUCKNER%20BOULEVARD%2C+BRONX%2C+NY+10473,Bronx,,,,,,left_only
NY DRUGS INC,"CASTLE HILL COMMUNITY PHARMACY, 706 CASTLE HILL AVENUE, BRONX, NY 10473",NY,10473.0,DEA,40.8210569,-73.85032740000003,April2018,http://maps.google.com/maps?q=NY%20DRUGS%20INC%2CCASTLE%20HILL%20COMMUNITY%20PHARMACY%2C+BRONX%2C+NY+10473,Bronx,,,,,,left_only
TOWN CENTER PHARMACY,"575 MAIN STREET, ARMONK, NY 10504",NY,10504.0,DEA,41.1330649065,-73.7118819826,April2018,http://maps.google.com/maps?q=TOWN%20CENTER%20PHARMACY%2C575%20MAIN%20STREET%2C+ARMONK%2C+NY+10504,Westchester,http://maps.google.com/maps?q=TOWN%20CENTER%20PHARMACY%2C575%20MAIN%20STREET%2C+ARMONK%2C+NY+10504,NY,10504.0,DEA,Oct2018,both
DOBBS FERRY PHARMACY,"18 CEDAR STREET, DOBBS FERRY, NY 10522",NY,10522.0,DEA,41.015251,-73.8707278333,April2018,http://maps.google.com/maps?q=DOBBS%20FERRY%20PHARMACY%2C18%20CEDAR%20STREET%2C+DOBBS%20FERRY%2C+NY+10522,Westchester,,,,,,left_only
MARC'S VILLAGE PHARMACY INC,"31 EAST MAIN STREET, ELMSFORD, NY 10523",NY,10523.0,DEA,41.0545208423,-73.81848155029999,April2018,http://maps.google.com/maps?q=MARCS%20VILLAGE%20PHARMACY%20INC%2C31%20EAST%20MAIN%20STREET%2C+ELMSFORD%2C+NY+10523,Westchester,http://maps.google.com/maps?q=MARCS%20VILLAGE%20PHARMACY%20INC%2C31%20EAST%20MAIN%20STREET%2C+ELMSFORD%2C+NY+10523,NY,10523.0,DEA,Oct2018,both
TROTTA'S WEST STREET PHAR INC,"15 HALSTEAD AVE, HARRISON, NY 10528",NY,10528.0,DEA,40.9620654859,-73.7233694705,April2018,http://maps.google.com/maps?q=TROTTAS%20WEST%20STREET%20PHAR%20INC%2C15%20HALSTEAD%20AVE%2C+HARRISON%2C+NY+10528,Westchester,,,,,,left_only
"TACONIC PHARMACY, INC","3659 LEE ROAD, JEFFERSON VALLEY, NY 10535",NY,10535.0,DEA,41.33287,-73.80974,April2018,http://maps.google.com/maps?q=TACONIC%20PHARMACY%20INC%2C3659%20LEE%20ROAD%2C+JEFFERSON%20VALLEY%2C+NY+10535,Westchester,http://maps.google.com/maps?q=TACONIC%20PHARMACY%20INC%2C3659%20LEE%20ROAD%2C+JEFFERSON%20VALLEY%2C+NY+10535,NY,10535.0,DEA,Oct2018,both
"CVS ALBANY, L.L.C.","294 KATONAH AVENUE, KATONAH, NY 10536",NY,10536.0,DEA,41.2586604828,-73.6840816207,April2018,http://maps.google.com/maps?q=CVS%20ALBANY%20LLC%2C294%20KATONAH%20AVENUE%2C+KATONAH%2C+NY+10536,Westchester,http://maps.google.com/maps?q=CVS%20ALBANY%20LLC%2C294%20KATONAH%20AVENUE%2C+KATONAH%2C+NY+10536,NY,10536.0,DEA,Oct2018,both
NORTHERN WESTCHESTER HOSPITAL,"400 E MAIN ST, MOUNT KISCO, NY 10549",NY,10549.0,DEA,41.19666215,-73.7256454245,April2018,http://maps.google.com/maps?q=NORTHERN%20WESTCHESTER%20HOSPITAL%2C400%20E%20MAIN%20ST%2C+MOUNT%20KISCO%2C+NY+10549,Westchester,,,,,,left_only
GRAMATAN PHARMACY CORP,"120 GRAMATAN AVENUE, MOUNT VERNON, NY 10550",NY,10550.0,DEA,40.914505,-73.83740999999998,Dec2018,http://maps.google.com/maps?q=GRAMATAN%20PHARMACY%20CORP%2C120%20GRAMATAN%20AVENUE%2C+MOUNT%20VERNON%2C+NY+10550,Westchester,,,,,,left_only
HEALTHSMART,"203 MAIN STREET, OSSINING, NY 10562",NY,10562.0,DEA,41.161503,-73.862015,Dec2018,http://maps.google.com/maps?q=HEALTHSMART%2C203%20MAIN%20STREET%2C+OSSINING%2C+NY+10562,Westchester,,,,,,left_only
"CVS ALBANY, L.L.C.","12 WELCHER AVE., PEEKSKILL, NY 10566",NY,10566.0,DEA,41.2704597963,-73.93565757399999,April2018,http://maps.google.com/maps?q=CVS%20ALBANY%20LLC%2C12%20WELCHER%20AVE.%2C+PEEKSKILL%2C+NY+10566,Westchester,,,,,,left_only
"CVS ALBANY, L.L.C.","1827 MAIN ST., PEEKSKILL, NY 10566",NY,10566.0,DEA,41.294836394200004,-73.9037158574,April2018,http://maps.google.com/maps?q=CVS%20ALBANY%20LLC%2C1827%20MAIN%20ST.%2C+PEEKSKILL%2C+NY+10566,Westchester,,,,,,left_only
D AND B PHARMACY CORP,"222 OAKRIDGE COMMONS, SOUTH SALEM, NY 10590",NY,10590.0,DEA,41.216396,-73.517555,April2018,http://maps.google.com/maps?q=D%20AND%20B%20PHARMACY%20CORP%2C222%20OAKRIDGE%20COMMONS%2C+SOUTH%20SALEM%2C+NY+10590,Westchester,,,,,,left_only
"CVS ALBANY, L.L.C.","325 MAMARONECK AVE., WHITE PLAINS, NY 10605",NY,10605.0,DEA,41.0241281538,-73.7628126923,April2018,http://maps.google.com/maps?q=CVS%20ALBANY%20LLC%2C325%20MAMARONECK%20AVE.%2C+WHITE%20PLAINS%2C+NY+10605,Westchester,http://maps.google.com/maps?q=CVS%20ALBANY%20LLC%2C325%20MAMARONECK%20AVE.%2C+WHITE%20PLAINS%2C+NY+10605,NY,10605.0,DEA,Oct2018,both
MERU PHARMACY INC,"2 PARK AVENUE, YONKERS, NY 10703",NY,10703.0,DEA,40.9401435,-73.89149359,April2018,http://maps.google.com/maps?q=MERU%20PHARMACY%20INC%2C2%20PARK%20AVENUE%2C+YONKERS%2C+NY+10703,Westchester,http://maps.google.com/maps?q=MERU%20PHARMACY%20INC%2C2%20PARK%20AVENUE%2C+YONKERS%2C+NY+10703,NY,10703.0,DEA,Oct2018,both
WALGREEN EASTERN CO INC,"1230 NEPPERHAN AVE, YONKERS, NY 10703",NY,10703.0,DEA,40.965576,-73.87241999999998,Dec2018,http://maps.google.com/maps?q=WALGREEN%20EASTERN%20CO%20INC%2C1230%20NEPPERHAN%20AVE%2C+YONKERS%2C+NY+10703,Westchester,,,,,,left_only
LE-MAC PHARMACY INC,"623 MC LEAN AVE, YONKERS, NY 10705",NY,10705.0,DEA,40.90938,-73.879654,April2018,http://maps.google.com/maps?q=LEMAC%20PHARMACY%20INC%2C623%20MC%20LEAN%20AVE%2C+YONKERS%2C+NY+10705,Westchester,http://maps.google.com/maps?q=LEMAC%20PHARMACY%20INC%2C623%20MC%20LEAN%20AVE%2C+YONKERS%2C+NY+10705,NY,10705.0,DEA,Oct2018,both
"CVS ALBANY, L.L.C.","2290 CENTRAL PARK AVENUE, YONKERS, NY 10710",NY,10710.0,DEA,40.90958300000001,-73.877712,April2018,http://maps.google.com/maps?q=CVS%20ALBANY%20LLC%2C2290%20CENTRAL%20PARK%20AVENUE%2C+YONKERS%2C+NY+10710,Westchester,http://maps.google.com/maps?q=CVS%20ALBANY%20LLC%2C2290%20CENTRAL%20PARK%20AVENUE%2C+YONKERS%2C+NY+10710,NY,10710.0,DEA,Oct2018,both
"G.S.P. LONGTERM CARE, INC","1567 CENTRAL PARK AVENUE, YONKERS, NY 10710",NY,10710.0,DEA,40.90958300000001,-73.877712,April2018,http://maps.google.com/maps?q=GSP%20LONGTERM%20CARE%20INC%2C1567%20CENTRAL%20PARK%20AVENUE%2C+YONKERS%2C+NY+10710,Westchester,,,,,,left_only
GRASSY SPRAIN PHARMACY INC,"640 TUCKAHOE ROAD, YONKERS, NY 10710",NY,10710.0,DEA,40.9537683359,-73.8446789668,April2018,http://maps.google.com/maps?q=GRASSY%20SPRAIN%20PHARMACY%20INC%2C640%20TUCKAHOE%20ROAD%2C+YONKERS%2C+NY+10710,Westchester,http://maps.google.com/maps?q=GRASSY%20SPRAIN%20PHARMACY%20INC%2C640%20TUCKAHOE%20ROAD%2C+YONKERS%2C+NY+10710,NY,10710.0,DEA,Oct2018,both
"CVS ALBANY, L.L.C.","309 MAIN ST., NEW ROCHELLE, NY 10801",NY,10801.0,DEA,40.901062,-73.79370909999999,April2018,http://maps.google.com/maps?q=CVS%20ALBANY%20LLC%2C309%20MAIN%20ST.%2C+NEW%20ROCHELLE%2C+NY+10801,Westchester,http://maps.google.com/maps?q=CVS%20ALBANY%20LLC%2C309%20MAIN%20ST.%2C+NEW%20ROCHELLE%2C+NY+10801,NY,10801.0,DEA,Oct2018,both
NEW ROCHELLE PRESCRIPTION CTR INC,"551 MAIN ST., NEW ROCHELLE, NY 10801",NY,10801.0,DEA,40.907845,-73.7833530526,April2018,http://maps.google.com/maps?q=NEW%20ROCHELLE%20PRESCRIPTION%20CTR%20INC%2C551%20MAIN%20ST.%2C+NEW%20ROCHELLE%2C+NY+10801,Westchester,,,,,,left_only
"CVS ALBANY, L.L.C.","5 INDIAN ROCK PLAZA, SUFFERN, NY 10901",NY,10901.0,DEA,41.113736,-74.1317939,April2018,http://maps.google.com/maps?q=CVS%20ALBANY%20LLC%2C5%20INDIAN%20ROCK%20PLAZA%2C+SUFFERN%2C+NY+10901,Rockland,,,,,,left_only
BARDONIA PHARMACY LLC,"301 ROUTE 304, SUITE 4, BARDONIA, NY 10954",NY,10954.0,DEA,41.10908,-73.99609,April2018,http://maps.google.com/maps?q=BARDONIA%20PHARMACY%20LLC%2C301%20ROUTE%20304%2C+BARDONIA%2C+NY+10954,Rockland,,,,,,left_only
"CVS ALBANY, L.L.C.","280 SOUTH MAIN STREET, NEW CITY, NY 10956",NY,10956.0,DEA,41.1380444542,-73.9906265895,April2018,http://maps.google.com/maps?q=CVS%20ALBANY%20LLC%2C280%20SOUTH%20MAIN%20STREET%2C+NEW%20CITY%2C+NY+10956,Rockland,http://maps.google.com/maps?q=CVS%20ALBANY%20LLC%2C280%20SOUTH%20MAIN%20STREET%2C+NEW%20CITY%2C+NY+10956,NY,10956.0,DEA,Oct2018,both
"WALGREEN EASTERN CO., INC.","31 CAVALRY DR., NEW CITY, NY 10956",NY,10956.0,DEA,41.15381,-73.987144,Dec2018,http://maps.google.com/maps?q=WALGREEN%20EASTERN%20CO%20INC%2C31%20CAVALRY%20DR.%2C+NEW%20CITY%2C+NY+10956,Rockland,http://maps.google.com/maps?q=WALGREEN%20EASTERN%20CO%20INC%2C31%20CAVALRY%20DR.%2C+NEW%20CITY%2C+NY+10956,NY,10956.0,DEA,Oct2018,both
"CVS ALBANY, L.L.C.","75 N. MIDDLETOWN RD., PEARL RIVER, NY 10965",NY,10965.0,DEA,41.0621629269,-74.01305340569999,April2018,http://maps.google.com/maps?q=CVS%20ALBANY%20LLC%2C75%20N.%20MIDDLETOWN%20RD.%2C+PEARL%20RIVER%2C+NY+10965,Rockland,http://maps.google.com/maps?q=CVS%20ALBANY%20LLC%2C75%20N.%20MIDDLETOWN%20RD.%2C+PEARL%20RIVER%2C+NY+10965,NY,10965.0,DEA,Oct2018,both
PEARL RIVER CHEMISTS INC,"139 NORTH MIDDLETOWN ROAD, PEARL RIVER, NY 10965",NY,10965.0,DEA,41.0627300426,-74.012995617,April2018,http://maps.google.com/maps?q=PEARL%20RIVER%20CHEMISTS%20INC%2C139%20NORTH%20MIDDLETOWN%20ROAD%2C+PEARL%20RIVER%2C+NY+10965,Rockland,,,,,,left_only
US ARMY MALOGNE CADET HEALTH CLINIC,"2 THAYER RD, WEST POINT, NY 10996",NY,10996.0,DEA,41.376907,-73.962425,Dec2018,http://maps.google.com/maps?q=US%20ARMY%20MALOGNE%20CADET%20HEALTH%20CLINIC%2C2%20THAYER%20RD%2C+WEST%20POINT%2C+NY+10996,Orange,,,,,,left_only
US ARMY- KELLER COMMUNITY HOSPITAL,"900 WASHINGTON RD, WEST POINT, NY 10996",NY,10996.0,DEA,41.39901,-73.98175,Dec2018,http://maps.google.com/maps?q=US%20ARMY%20IRELAND%20COMMUNITY%20HOSPPHARM%2C289%20IRELAND%20AVE%20BLDG%20851%2C+FORT%20KNOX%2C+KY+40121,Orange,http://maps.google.com/maps?q=US%20ARMY%20KELLER%20COMMUNITY%20HOSPITAL%2C900%20WASHINGTON%20RD%2C+WEST%20POINT%2C+NY+10996,NY,10996.0,DEA,Oct2018,both
"MEACHAM PHARMACY,  INC","107 MEACHAM AVENUE, ELMONT, NY 11003",NY,11003.0,DEA,40.70541400000001,-73.690414,Dec2018,http://maps.google.com/maps?q=MEACHAM%20PHARMACY%20%20INC%2C107%20MEACHAM%20AVENUE%2C+ELMONT%2C+NY+11003,Nassau,,,,,,left_only
FRANKLIN SQUARE PHARMACY INC,"925 HEMPSTEAD TURNPIKE, ATTN: SUPERVISING PHARMACIST, FRANKLIN SQUARE, NY 11010",NY,11010.0,DEA,40.707306,-73.67449,April2018,http://maps.google.com/maps?q=FRANKLIN%20SQUARE%20PHARMACY%20INC%2C925%20HEMPSTEAD%20TURNPIKE%2C+FRANKLIN%20SQUARE%2C+NY+11010,Nassau,,,,,,left_only
WELLNESS CENTER PHARMACY,"4013 BROADWAY, ASTORIA, NY 11103",NY,11103.0,DEA,40.763429,-73.9284422,April2018,http://maps.google.com/maps?q=WELLNESS%20CENTER%20PHARMACY%2C4013%20BROADWAY%2C+ASTORIA%2C+NY+11103,Queens,http://maps.google.com/maps?q=WELLNESS%20CENTER%20PHARMACY%2C4013%20BROADWAY%2C+ASTORIA%2C+NY+11103,NY,11103.0,DEA,Oct2018,both
"CVS ALBANY, L.L.C.","3101 DITMARS BLVD., ASTORIA, NY 11105",NY,11105.0,DEA,40.7824664,-73.91967220000002,April2018,http://maps.google.com/maps?q=CVS%20ALBANY%20LLC%2C3101%20DITMARS%20BLVD.%2C+ASTORIA%2C+NY+11105,Queens,http://maps.google.com/maps?q=CVS%20ALBANY%20LLC%2C3101%20DITMARS%20BLVD.%2C+ASTORIA%2C+NY+11105,NY,11105.0,DEA,Oct2018,both
AVK RX INC.,"3904 CHURCH AVE, BROOKLYN, NY 11203",NY,11203.0,DEA,40.6511562653,-73.9407631837,April2018,http://maps.google.com/maps?q=AVK%20RX%20INC%2C3904%20CHURCH%20AVE%2C+BROOKLYN%2C+NY+11203,Kings,http://maps.google.com/maps?q=AVK%20RX%20INC%2C3904%20CHURCH%20AVE%2C+BROOKLYN%2C+NY+11203,NY,11203.0,DEA,Oct2018,both
MARG PHARMACY,"76 GRAHAM AVE., BROOKLYN, NY 11206",NY,11206.0,DEA,40.70360895,-73.942262102,April2018,http://maps.google.com/maps?q=MARG%20PHARMACY%2C76%20GRAHAM%20AVE.%2C+BROOKLYN%2C+NY+11206,Kings,http://maps.google.com/maps?q=MARG%20PHARMACY%2C76%20GRAHAM%20AVE.%2C+BROOKLYN%2C+NY+11206,NY,11206.0,DEA,Oct2018,both
HILL RX CORP,"9216 4TH AVENUE, BROOKLYN, NY 11209",NY,11209.0,DEA,40.61805379999999,-74.0305558588,April2018,http://maps.google.com/maps?q=HILL%20RX%20CORP%2C9216%204TH%20AVENUE%2C+BROOKLYN%2C+NY+11209,Kings,http://maps.google.com/maps?q=HILL%20RX%20CORP%2C9216%204TH%20AVENUE%2C+BROOKLYN%2C+NY+11209,NY,11209.0,DEA,Oct2018,both
FLATBUSH RX CORP,"1855 FLATBUSH AVE, BROOKLYN, NY 11210",NY,11210.0,DEA,40.6247267,-73.9386941544,April2018,http://maps.google.com/maps?q=FLATBUSH%20RX%20CORP%2C1855%20FLATBUSH%20AVE%2C+BROOKLYN%2C+NY+11210,Kings,,,,,,left_only
BANDSTAND CORPORATION,"226 PROSPECT PARK WEST, BROOKLYN, NY 11215",NY,11215.0,DEA,40.65995,-73.98093259999997,April2018,http://maps.google.com/maps?q=BANDSTAND%20CORPORATION%2C226%20PROSPECT%20PARK%20WEST%2C+BROOKLYN%2C+NY+11215,Kings,,,,,,left_only
BESAEL CORP,"DBA OAK PARK PHARMACY, 205 PROSPECT PARK WEST, BROOKLYN, NY 11215",NY,11215.0,DEA,40.6605349,-73.9820463,April2018,http://maps.google.com/maps?q=BESAEL%20CORP%2CDBA%20OAK%20PARK%20PHARMACY%2C+BROOKLYN%2C+NY+11215,Kings,,,,,,left_only
"WALGREEN EASTERN CO., INC.","1281 FULTON ST., BROOKLYN, NY 11216",NY,11216.0,DEA,40.680428000000006,-73.95,Dec2018,http://maps.google.com/maps?q=WALGREEN%20EASTERN%20CO%20INC%2C1281%20FULTON%20ST.%2C+BROOKLYN%2C+NY+11216,Kings,,,,,,left_only
AIDS HEALTHCARE FOUNDATION,"475 ATLANTIC AVE, BROOKLYN, NY 11217",NY,11217.0,DEA,40.685825,-73.98195,Dec2018,http://maps.google.com/maps?q=AIDS%20HEALTHCARE%20FOUNDATION%2C475%20ATLANTIC%20AVE%2C+BROOKLYN%2C+NY+11217,Kings,,,,,,left_only
DUANE READE,"296 FLATBUSH AVE, BROOKLYN, NY 11217",NY,11217.0,DEA,40.67817,-73.9732,Dec2018,http://maps.google.com/maps?q=DUANE%20READE%2C296%20FLATBUSH%20AVE%2C+BROOKLYN%2C+NY+11217,Kings,http://maps.google.com/maps?q=DUANE%20READE%2C296%20FLATBUSH%20AVE%2C+BROOKLYN%2C+NY+11217,NY,11217.0,DEA,Oct2018,both
"WALGREEN EASTERN CO., INC.","114 BEVERLEY RD., BROOKLYN, NY 11218",NY,11218.0,DEA,40.642937,-73.97889,Dec2018,http://maps.google.com/maps?q=WALGREEN%20EASTERN%20CO%20INC%2C114%20BEVERLEY%20RD.%2C+BROOKLYN%2C+NY+11218,Kings,,,,,,left_only
13TH AVENUE PHARMACY INC,"5211 13TH AVENUE, BROOKLYN, NY 11219",NY,11219.0,DEA,40.6330138,-73.996213,April2018,http://maps.google.com/maps?q=TH%20AVENUE%20PHARMACY%20INC%2C5211%2013TH%20AVENUE%2C+BROOKLYN%2C+NY+11219,Kings,http://maps.google.com/maps?q=TH%20AVENUE%20PHARMACY%20INC%2C5211%2013TH%20AVENUE%2C+BROOKLYN%2C+NY+11219,NY,11219.0,DEA,Oct2018,both
MRR PHARMA INC,"6220-6222 11TH AVENUE, BROOKLYN, NY 11219",NY,11219.0,DEA,40.6302433061,-74.004399551,April2018,http://maps.google.com/maps?q=MRR%20PHARMA%20INC%2C6220-6222%2011TH%20AVENUE%2C+BROOKLYN%2C+NY+11219,Kings,http://maps.google.com/maps?q=MRR%20PHARMA%20INC%2C6220-6222%2011TH%20AVENUE%2C+BROOKLYN%2C+NY+11219,NY,11219.0,DEA,Oct2018,both
DUANE READE,"5008 5TH AVE, BROOKLYN, NY 11220",NY,11220.0,DEA,40.645046,-74.01041,Dec2018,http://maps.google.com/maps?q=DUANE%20READE%2C5008%205TH%20AVE%2C+BROOKLYN%2C+NY+11220,Kings,http://maps.google.com/maps?q=DUANE%20READE%2C5008%205TH%20AVE%2C+BROOKLYN%2C+NY+11220,NY,11220.0,DEA,Oct2018,both
"TAFT'S PHARMACY, INC.","6024 5TH AVENUE, BROOKLYN, NY 11220",NY,11220.0,DEA,40.639069,-74.016801,April2018,http://maps.google.com/maps?q=TAFTS%20PHARMACY%20INC%2C6024%205TH%20AVENUE%2C+BROOKLYN%2C+NY+11220,Kings,http://maps.google.com/maps?q=TAFTS%20PHARMACY%20INC%2C6024%205TH%20AVENUE%2C+BROOKLYN%2C+NY+11220,NY,11220.0,DEA,Oct2018,both
I & O PHARMACY CORP,"669 MANHATTAN AVENUE, BROOKLYN, NY 11222",NY,11222.0,DEA,40.7246968,-73.95149079999999,April2018,http://maps.google.com/maps?q=I%20%20O%20PHARMACY%20CORP%2C669%20MANHATTAN%20AVENUE%2C+BROOKLYN%2C+NY+11222,Kings,http://maps.google.com/maps?q=I%20%20O%20PHARMACY%20CORP%2C669%20MANHATTAN%20AVENUE%2C+BROOKLYN%2C+NY+11222,NY,11222.0,DEA,Oct2018,both
FULL CARE PHARMACY INC,"2913 SURF AVE, BROOKLYN, NY 11224",NY,11224.0,DEA,40.5729346531,-73.9951668776,April2018,http://maps.google.com/maps?q=FULL%20CARE%20PHARMACY%20INC%2C2913%20SURF%20AVE%2C+BROOKLYN%2C+NY+11224,Kings,http://maps.google.com/maps?q=FULL%20CARE%20PHARMACY%20INC%2C2913%20SURF%20AVE%2C+BROOKLYN%2C+NY+11224,NY,11224.0,DEA,Oct2018,both
EAST 16 STREET PHARMACY INC,"1526 CORTELYOU RD, BROOKLYN, NY 11226",NY,11226.0,DEA,40.641296,-73.96421,Dec2018,http://maps.google.com/maps?q=EAST%20%20STREET%20PHARMACY%20INC%2C1526%20CORTELYOU%20RD%2C+BROOKLYN%2C+NY+11226,Kings,,,,,,left_only
USMAN INC,"3001 CLARENDON RD, BROOKLYN, NY 11226",NY,11226.0,DEA,40.6434037,-73.94859749999998,April2018,http://maps.google.com/maps?q=USMAN%20INC%2C3001%20CLARENDON%20RD%2C+BROOKLYN%2C+NY+11226,Kings,http://maps.google.com/maps?q=USMAN%20INC%2C3001%20CLARENDON%20RD%2C+BROOKLYN%2C+NY+11226,NY,11226.0,DEA,Oct2018,both
"CVS ALBANY, L.L.C.","2925 KINGS HIGHWAY, BROOKLYN, NY 11229",NY,11229.0,DEA,40.615632898,-73.9455307143,April2018,http://maps.google.com/maps?q=CVS%20ALBANY%20LLC%2C2925%20KINGS%20HIGHWAY%2C+BROOKLYN%2C+NY+11229,Kings,http://maps.google.com/maps?q=CVS%20ALBANY%20LLC%2C2925%20KINGS%20HIGHWAY%2C+BROOKLYN%2C+NY+11229,NY,11229.0,DEA,Oct2018,both
OCEAN A & R PHARMACY INC.,"2806 OCEAN AVENUE, BROOKLYN, NY 11229",NY,11229.0,DEA,40.5930296,-73.950404,April2018,http://maps.google.com/maps?q=OCEAN%20A%20%20R%20PHARMACY%20INC%2C2806%20OCEAN%20AVENUE%2C+BROOKLYN%2C+NY+11229,Kings,http://maps.google.com/maps?q=OCEAN%20A%20%20R%20PHARMACY%20INC%2C2806%20OCEAN%20AVENUE%2C+BROOKLYN%2C+NY+11229,NY,11229.0,DEA,Oct2018,both
SHALOM'S PHARMACY INC,"1106 AVENUE K 1ST FLOOR, BROOKLYN, NY 11230",NY,11230.0,DEA,40.622383,-73.964584,April2018,http://maps.google.com/maps?q=SHALOMS%20PHARMACY%20INC%2C1106%20AVENUE%20K%201ST%20FLOOR%2C+BROOKLYN%2C+NY+11230,Kings,,,,,,left_only
SIDDIQUI CORPORATION,"1109 CONEY ISLAND AVE, BROOKLYN, NY 11230",NY,11230.0,DEA,40.63058,-73.9659775692,April2018,http://maps.google.com/maps?q=SIDDIQUI%20CORPORATION%2C1109%20CONEY%20ISLAND%20AVE%2C+BROOKLYN%2C+NY+11230,Kings,,,,,,left_only
ERX PHARMACEUTICAL LLC,"159 RALPH AVE, BROOKLYN, NY 11233",NY,11233.0,DEA,40.6845097333,-73.9229212667,April2018,http://maps.google.com/maps?q=ERX%20PHARMACEUTICAL%20LLC%2C159%20RALPH%20AVE%2C+BROOKLYN%2C+NY+11233,Kings,,,,,,left_only
VIJAN PHARMA INC,"312 RALPH AVENUE, BROOKLYN, NY 11233",NY,11233.0,DEA,40.678455,-73.9217,Dec2018,http://maps.google.com/maps?q=VIJAN%20PHARMA%20INC%2C312%20RALPH%20AVENUE%2C+BROOKLYN%2C+NY+11233,Kings,,,,,,left_only
"CVS ALBANY, L.L.C.","4901 KINGS HIGHWAY, BROOKLYN, NY 11234",NY,11234.0,DEA,40.63434779999999,-73.928932447,April2018,http://maps.google.com/maps?q=CVS%20ALBANY%20LLC%2C4901%20KINGS%20HIGHWAY%2C+BROOKLYN%2C+NY+11234,Kings,http://maps.google.com/maps?q=CVS%20ALBANY%20LLC%2C4901%20KINGS%20HIGHWAY%2C+BROOKLYN%2C+NY+11234,NY,11234.0,DEA,Oct2018,both
NPL DRUGS INC,"6602 AVE U, BROOKLYN, NY 11234",NY,11234.0,DEA,40.617344,-73.9109,Dec2018,http://maps.google.com/maps?q=NPL%20DRUGS%20INC%2C6602%20AVE%20U%2C+BROOKLYN%2C+NY+11234,Kings,,,,,,left_only
JOJAN PHARMA INC,"121 ST.NICHOLAS AVENUE, BROOKLYN, NY 11237",NY,11237.0,DEA,40.705418,-73.91804499999998,Dec2018,http://maps.google.com/maps?q=JOJAN%20PHARMA%20INC%2C121%20ST.NICHOLAS%20AVENUE%2C+BROOKLYN%2C+NY+11237,Kings,,,,,,left_only
DUANE READE,"13602 ROOSEVELT AVENUE, FLUSHING, NY 11354",NY,11354.0,DEA,40.759414,-73.82979300000002,Dec2018,http://maps.google.com/maps?q=DUANE%20READE%2C13602%20ROOSEVELT%20AVENUE%2C+FLUSHING%2C+NY+11354,Queens,,,,,,left_only
HARPELL CHEMISTS INC,"12-65 150TH STREET, WHITESTONE, NY 11357",NY,11357.0,DEA,40.7889941,-73.8137317,April2018,http://maps.google.com/maps?q=HARPELL%20CHEMISTS%20INC%2C12-65%20150TH%20STREET%2C+WHITESTONE%2C+NY+11357,Queens,,,,,,left_only
"CVS ALBANY, L.L.C.","212-20 NORTHERN BOULEVARD, BAYSIDE, NY 11361",NY,11361.0,DEA,40.75975089999999,-73.7699997,April2018,http://maps.google.com/maps?q=CVS%20ALBANY%20LLC%2C212-20%20NORTHERN%20BOULEVARD%2C+BAYSIDE%2C+NY+11361,Queens,http://maps.google.com/maps?q=CVS%20ALBANY%20LLC%2C212-20%20NORTHERN%20BOULEVARD%2C+BAYSIDE%2C+NY+11361,NY,11361.0,DEA,Oct2018,both
STERLING PHARMACY INC,"38-01 BELL BLVD, BAYSIDE, NY 11361",NY,11361.0,DEA,40.7664109,-73.77229559999998,April2018,http://maps.google.com/maps?q=STERLING%20PHARMACY%20INC%2C38-01%20BELL%20BLVD%2C+BAYSIDE%2C+NY+11361,Queens,http://maps.google.com/maps?q=STERLING%20PHARMACY%20INC%2C38-01%20BELL%20BLVD%2C+BAYSIDE%2C+NY+11361,NY,11361.0,DEA,Oct2018,both
BAYSIDE PHARMACY INC.,"221-36 HORACE HARDING EXPRESSWAY, OAKLAND GARDENS, NY 11364",NY,11364.0,DEA,40.7492678,-73.7552226,April2018,http://maps.google.com/maps?q=BAYSIDE%20PHARMACY%20INC%2C221-36%20HORACE%20HARDING%20EXPRESSWAY%2C+OAKLAND%20GARDENS%2C+NY+11364,Queens,,,,,,left_only
AVONORA INC.,"149-01 UNION TURNPIKE, FLUSHING, NY 11367",NY,11367.0,DEA,40.71863,-73.8137,April2018,http://maps.google.com/maps?q=AVONORA%20INC%2C149-01%20UNION%20TURNPIKE%2C+FLUSHING%2C+NY+11367,Queens,,,,,,left_only
S & M PHARMACY INC,"68-50 MAIN STREET, FLUSHING, NY 11367",NY,11367.0,DEA,40.73204000000001,-73.8246,April2018,http://maps.google.com/maps?q=S%20%20M%20PHARMACY%20INC%2C68-50%20MAIN%20STREET%2C+FLUSHING%2C+NY+11367,Queens,http://maps.google.com/maps?q=S%20%20M%20PHARMACY%20INC%2C68-50%20MAIN%20STREET%2C+FLUSHING%2C+NY+11367,NY,11367.0,DEA,Oct2018,both
"B & B PHARMACY, INC.","79-08 37TH AVE, JACKSON HEIGHTS, NY 11372",NY,11372.0,DEA,40.7493677,-73.8867945,April2018,http://maps.google.com/maps?q=B%20%20B%20PHARMACY%20INC%2C79-08%2037TH%20AVE%2C+JACKSON%20HEIGHTS%2C+NY+11372,Queens,,,,,,left_only
"CVS ALBANY, L.L.C.","89-11 NORTHERN BLVD., JACKSON HEIGHTS, NY 11372",NY,11372.0,DEA,40.755364,-73.88721140000001,April2018,http://maps.google.com/maps?q=CVS%20ALBANY%20LLC%2C89-11%20NORTHERN%20BLVD.%2C+JACKSON%20HEIGHTS%2C+NY+11372,Queens,http://maps.google.com/maps?q=CVS%20ALBANY%20LLC%2C89-11%20NORTHERN%20BLVD.%2C+JACKSON%20HEIGHTS%2C+NY+11372,NY,11372.0,DEA,Oct2018,both
DUANE READE,"73-01 37TH AVENUE, JACKSON HEIGHTS, NY 11372",NY,11372.0,DEA,40.748882,-73.89265999999998,Dec2018,http://maps.google.com/maps?q=DUANE%20READE%2C73-01%2037TH%20AVENUE%2C+JACKSON%20HEIGHTS%2C+NY+11372,Queens,http://maps.google.com/maps?q=DUANE%20READE%2C73-01%2037TH%20AVENUE%2C+JACKSON%20HEIGHTS%2C+NY+11372,NY,11372.0,DEA,Oct2018,both
FRANCO PHARMACY CORP,"77-01 37TH AVE, JACKSON HEIGHTS, NY 11372",NY,11372.0,DEA,40.749264,-73.88898,Dec2018,http://maps.google.com/maps?q=FRANCO%20PHARMACY%20CORP%2C77-01%2037TH%20AVE%2C+JACKSON%20HEIGHTS%2C+NY+11372,Queens,http://maps.google.com/maps?q=FRANCO%20PHARMACY%20CORP%2C77-01%2037TH%20AVE%2C+JACKSON%20HEIGHTS%2C+NY+11372,NY,11372.0,DEA,Oct2018,both
JACKSON HEIGHTS DRUGS INC.,"BANGLADESH FARMACIA, 73-21 37TH ROAD, JACKSON HEIGHTS, NY 11372",NY,11372.0,DEA,40.7484723,-73.89246109999998,April2018,http://maps.google.com/maps?q=JACKSON%20HEIGHTS%20DRUGS%20INC%2CBANGLADESH%20FARMACIA%2C+JACKSON%20HEIGHTS%2C+NY+11372,Queens,,,,,,left_only
CEDARS PHARMACY,"95-19 57 AVENUE, ELMHURST, NY 11373",NY,11373.0,DEA,40.73671,-73.86561999999998,April2018,http://maps.google.com/maps?q=CEDARS%20PHARMACY%2C95-19%2057%20AVENUE%2C+ELMHURST%2C+NY+11373,Queens,http://maps.google.com/maps?q=CEDARS%20PHARMACY%2C95-19%2057%20AVENUE%2C+ELMHURST%2C+NY+11373,NY,11373.0,DEA,Oct2018,both
R&P APOTHECARY,"D/B/A EVERGREEN DRUGS, 87-08 JUSTICE AVENUE, ELMHURST, NY 11373",NY,11373.0,DEA,40.7372311,-73.87854140000002,April2018,http://maps.google.com/maps?q=RP%20APOTHECARY%2CD/B/A%20EVERGREEN%20DRUGS%2C+ELMHURST%2C+NY+11373,Queens,http://maps.google.com/maps?q=RP%20APOTHECARY%2CD/B/A%20EVERGREEN%20DRUGS%2C+ELMHURST%2C+NY+11373,NY,11373.0,DEA,Oct2018,both
"WALGREEN EASTERN CO., INC.","8420 BROADWAY, ELMHURST, NY 11373",NY,11373.0,DEA,40.7394148,-73.8783651,Dec2018,http://maps.google.com/maps?q=WALGREEN%20EASTERN%20CO%20INC%2C8420%20BROADWAY%2C+ELMHURST%2C+NY+11373,Queens,http://maps.google.com/maps?q=WALGREEN%20EASTERN%20CO%20INC%2C8420%20BROADWAY%2C+ELMHURST%2C+NY+11373,NY,11373.0,DEA,Oct2018,both
