,name,state,postal,googleMapsUrl,address,source,source_date,lat,lng
1,ADELPHI UNIVERSITY,NY,11530,"http://maps.google.com/maps?q=ONE SOUTH AVE, U.C. LOBBY,+GARDEN CITY,+NY+11530&hl=en","ONE SOUTH AVE, U.C. LOBBY, GARDEN CITY, NY 11530",DEA,NTBD2018,40.7197286,-73.6517101
2,ADELPHI UNIVERSITY GRETA TIBERIA,NY,11530,"http://maps.google.com/maps?q=ONE SOUTH AVE, U.C. ROOMM 310,+GARDEN CITY,+NY+11530&hl=en","ONE SOUTH AVE, U.C. ROOM 310 GARDEN CITY, GARDEN CITY, NY 11530",DEA,NTBD2018,40.7187717,-73.6518733
18,BELCHERTOWN CENTER PARKING LOT,MA,1007,"http://maps.google.com/maps?q=3 PARK STREET,+BELCHERTOWN,+MA+01007&hl=en","3 PARK STREET, BELCHERTOWN, MA 01007",DEA,NTBD2018,42.2785711,-72.4014756
21,BENNINGTON COUNTY SHERIFF'S DEPT FRONT LOBBY,VT,5201,"http://maps.google.com/maps?q=811 US RT 7 SOUTH,+BENNINGTON,+VT+05201&hl=en","811 US RT 7 SOUTH, BENNINGTON, VT 05201",DEA,NTBD2018,42.8671313,-73.1962954
24,MANCHESTER VT POLICE DEPARTMENT FRONT LOBBY,VT,5255,"http://maps.google.com/maps?q=6041 MAIN STREET,+MANCHESTER CENTER,+VT+05255&hl=en","6041 MAIN STREET, MANCHESTER CENTER, VT 05255",DEA,NTBD2018,43.188886,-73.0454163
30,BILLERICA POLICE,MA,1821,"http://maps.google.com/maps?q=250 BOSTON RD,+BILLERICA,+MA+01821&hl=en","250 BOSTON RD, BILLERICA, MA 01821",DEA,NTBD2018,42.5751053,-71.2819271
31,BLACKSTONE POLICE DEPARTMENT,MA,1504,"http://maps.google.com/maps?q=15 ST. PAUL STREET,+BLACKSTONE,+MA+01504&hl=en","15 ST. PAUL STREET, BLACKSTONE, MA 01504",DEA,NTBD2018,42.0172849,-71.5335402
33,BOXBOROUGH POLICE DEPARTMENT OPEN 24/7,MA,1719,"https://www.google.com/maps/place/Boxboro+Police+Department/@42.4811222,-71.5091999,17.25z/data=!4m13!1m7!3m6!1s0x89e393bc1c6784f3:0x12539021bfeb0e0d!2s520+Massachusetts+Ave,+Boxborough,+MA+01719!3b1!8m2!3d42.4811197!4d-71.5073407!3m4!1s0x89e393bc046fd9d1:0x85abe832e1575bf7!8m2!3d42.4810935!4d-71.5073659?hl=en","FRONT LOBBY 520 MASSACHUSETTS AVENUE, BOXBOROUGH, MA 01719",DEA,NTBD2018,42.4811222,-71.5091999
34,BRADFORD POLICE DEPARTMENT,NH,3221,"http://maps.google.com/maps?q=2217 STATE ROUTE 114,+BRADFORD,+NH+03221&hl=en","2217 STATE ROUTE 114, BRADFORD, NH 03221",DEA,NTBD2018,43.2648156,-71.9511473
39,BURRILLVILLE POLICE DEPARTMENT,RI,2830,"http://maps.google.com/maps?q=1477 VICTORY HWY,+HARRISVILLE,+RI+02830&hl=en","1477 VICTORY HWY, HARRISVILLE, RI 02830",DEA,NTBD2018,41.9642004,-71.6425513
40,CVS PHARMACY,NY,12413,"http://maps.google.com/maps?q=7600 ROUTE 32,+CAIRO,+NY+12413&hl=en","7600 ROUTE 32, CAIRO, NY 12413",DEA,NTBD2018,42.2938828,-73.988742
41,CVS PHARMACY,NY,12413,"http://maps.google.com/maps?q=7600 SR 32 CAIRO,+CAIRO,+NY+12413&hl=en","7600 SR 32 CAIRO, CAIRO, NY 12413",DEA,NTBD2018,42.2938828,-73.988742
43,CASTLETON POLICE DEPARTMENT,VT,5735,"http://maps.google.com/maps?q=263 VT ROUTE 30,+CASTLETON,+VT+05735&hl=en","263 VT ROUTE 30, CASTLETON, VT 05735",DEA,NTBD2018,43.6133034,-73.2083333
46,CHESHIRE POLICE DEPARTMENT (LOBBY),CT,6410,"http://maps.google.com/maps?q=CHESHIRE POLICE DEPARTMENT,+CHESHIRE,+CT+06410&hl=en","CHESHIRE POLICE DEPARTMENT500 HIGHLAND AVENUE, CHESHIRE, CT 06410",DEA,NTBD2018,41.5110207,-72.8987829
48,CVS PARKING LOT CORNER OF WALL SST & BROAD ST,NH,3743,"https://www.google.com/maps/place/CVS/@43.3733413,-72.3372696,17z/data=!4m13!1m7!3m6!1s0x89e1c1de39281c71:0x98e02b9ccbfd3356!2sWall+St,+Claremont,+NH+03743!3b1!8m2!3d43.3733413!4d-72.3350809!3m4!1s0x89e1c1de0da959bf:0x667b6ac1d3b8ec6a!8m2!3d43.3730235!4d-72.3356333?hl=en","1 WALL ST, CLAREMONT, NH 03743",DEA,NTBD2018,43.3733413,-72.3372696
50,SHOP RITE,CT,6413,"http://maps.google.com/maps?q=266 E MAIN ST.,+CLINTON,+CT+06413&hl=en","266 E MAIN ST., CLINTON, CT 06413",DEA,NTBD2018,41.2703251,-72.5012198
51,CLOSTER POLICE GARAGE 201-768-5000,NJ,7624,"http://maps.google.com/maps?q=295 CLOSTER  DOCK ROAD,+CLOSTER,+NJ+07624&hl=en","295 CLOSTER  DOCK ROAD, CLOSTER, NJ 07624",DEA,NTBD2018,40.971402,-73.9592644
60,NEW HARTFORD RESIDENT TROOPER OFFICE REAR OF TOWN HALL BUILDING,CT,6057,"http://maps.google.com/maps?q=530 MAIN STREET,+NEW HARTFORD,+CT+06057&hl=en","530 MAIN STREET, NEW HARTFORD, CT 06057",DEA,NTBD2018,41.8786535,-72.9798367
78,NEW YORK CITY POLICE DEPARTMENT QUEENS 103RD PRECINCT,NY,11432,"http://maps.google.com/maps?q=168-02 PO EDWARD BYRNE AVENUE (JAMAICA),+JAMAICA,+NY+11432&hl=en","168-02 PO EDWARD BYRNE AVENUE (JAMAICA), JAMAICA, NY 11432",DEA,NTBD2018,40.7070813,-73.7926447
84,DOVER POLICE DEPARTMENT CHIEF RANDY JOHNSON,VT,5356,"http://maps.google.com/maps?q=246 ROUTE 100,+WEST DOVER,+VT+05356&hl=en","246 ROUTE 100, WEST DOVER, VT 05356",DEA,NTBD2018,42.9778771,-72.877349
101,FLORAL PARK POLICE DEPARTMENT,NY,11022,"http://maps.google.com/maps?q=1 FLORAL BLVD,+GREAT NECK,+NY+11022&hl=en","1 FLORAL BLVD, GREAT NECK, NY 11022",DEA,NTBD2018,40.7773752,-73.7315829
106,GARDEN CITY POLICE DEPARTMENT,NY,11530,"http://maps.google.com/maps?q=349 STEWART AVENUE,+GARDEN CITY,+NY+11530&hl=en","349 STEWART AVENUE, GARDEN CITY, NY 11530",DEA,NTBD2018,40.7265409,-73.6368128
110,GRAFTON POLICE DEPARTMENT,MA,1519,"http://maps.google.com/maps?q=28 PROVIDENCE ROAD,+GRAFTON,+MA+01519&hl=en","28 PROVIDENCE ROAD, GRAFTON, MA 01519",DEA,NTBD2018,42.2096071,-71.6931517
111,GRANBY POLICE HQ,CT,6035,"http://maps.google.com/maps?q=15 NORTH GRANBY ROAD,+GRANBY,+CT+06035&hl=en","15 NORTH GRANBY ROAD, GRANBY, CT 06035",DEA,NTBD2018,41.9545942,-72.7918164
141,LINCOLN POLICE DEPARTMENT,RI,2865,"http://maps.google.com/maps?q=100 OLD RIVER RD,+LINCOLN,+RI+02865&hl=en","100 OLD RIVER RD, LINCOLN, RI 02865",DEA,NTBD2018,41.9303439,-71.4428448
144,LONG ISLAND JEWISH MEDICAL CENTER LOBBY,NY,11040,"http://maps.google.com/maps?q=270-05 76ST AVENUE,+NEW HYDE PARK,+NY+11040&hl=en","270-05 76ST AVENUE, NEW HYDE PARK, NY 11040",DEA,NTBD2018,40.7531964,-73.706923
170,NEW YORK STATE POLICE CLIFTON PARK,NY,12065,"http://maps.google.com/maps?q=5 MUNICIPAL PLAZA,+CLIFTON PARK,+NY+12065&hl=en","5 MUNICIPAL PLAZASTATE ROUTE 146, CLIFTON PARK, NY 12065",DEA,NTBD2018,42.8640482,-73.7866823
172,NEW YORK STATE POLICE SCHODACK,NY,12033,"http://maps.google.com/maps?q=1485 STATE RT 9,+CASTLETON,+NY+12033&hl=en","1485 STATE RT 9, CASTLETON, NY 12033",DEA,NTBD2018,42.52076,-73.683361
177,NORTH BERGEN P.D.,NJ,7047,"http://maps.google.com/maps?q=4233 KENNEDY BLVD.,+NORTH BERGEN,+NJ+07047&hl=en","4233 KENNEDY BLVD., NORTH BERGEN, NJ 07047",DEA,NTBD2018,40.7793086,-74.0272034
179,NORTH GREENBUSH POLICE DEPARTMENT CHIEF ROBERT DURIVAGE,NY,12180,"http://maps.google.com/maps?q=133 BLOOMING GROVE DRIVE,+TROY,+NY+12180&hl=en","133 BLOOMING GROVE DRIVE, TROY, NY 12180",DEA,NTBD2018,42.6864257,-73.6804151
187,NORTHPORT VA POLICE DEPARTMENT,NY,11768,"http://maps.google.com/maps?q=79 MIDDLEVILLE ROAD,+NORTHPORT,+NY+11768&hl=en","79 MIDDLEVILLE ROAD, NORTHPORT, NY 11768",DEA,NTBD2018,40.893643,-73.3087836
191,COLUMBIA UNIVERSITY SIDEWALK,NY,10027,"http://maps.google.com/maps?q=WEST 116TH STREET AND BROADWAY,+NEW YORK,+NY+10027&hl=en","WEST 116TH STREET AND BROADWAY, NEW YORK, NY 10027",DEA,NTBD2018,40.8079932,-73.9638331
193,OLD LYME FIRE STATION,CT,6371,"http://maps.google.com/maps?q=69 LYME ST,+OLD LYME,+CT+06371&hl=en","69 LYME ST, OLD LYME, CT 06371",DEA,NTBD2018,41.3185646,-72.3250615
194,CVS,CT,6477,"http://maps.google.com/maps?q=279 BOSTON POST ROAD,+ORANGE,+CT+06477&hl=en","279 BOSTON POST ROAD, ORANGE, CT 06477",DEA,NTBD2018,41.2674301,-73.0016906
196,PECONIC BAY MEDICAL CENTER BRENDAN VAN SLYKE,NY,11901,"http://maps.google.com/maps?q=1300 ROANOKE AVENUE,+RIVERHEAD,+NY+11901&hl=en","1300 ROANOKE AVENUE, RIVERHEAD, NY 11901",DEA,NTBD2018,40.934406,-72.673557
205,NORTH END FIRE STATION,NY,12144,"http://maps.google.com/maps?q=2 ST. FRANCIS PLACE,+RENSSELAER,+NY+12144&hl=en","2 ST. FRANCIS PLACE, RENSSELAER, NY 12144",DEA,NTBD2018,42.6599928,-73.7196243
206,RHODE ISLAND STATE POLICE,RI,2865,"http://maps.google.com/maps?q=1575 LOUISQUISSET PIKE,+LINCOLN,+RI+02865&hl=en","1575 LOUISQUISSET PIKE, LINCOLN, RI 02865",DEA,NTBD2018,41.888412,-71.440636
215,RUTLAND PD,MA,1543,"http://maps.google.com/maps?q=242 MAIN STREET,+RUTLAND,+MA+01543&hl=en","242 MAIN STREET, RUTLAND, MA 01543",DEA,NTBD2018,42.3770159,-71.9544246
226,SETAUKET FIRE HOUSE DAVE STONE,NY,11733,"http://maps.google.com/maps?q=394 NICOLLS ROAD,+EAST SETAUKET,+NY+11733&hl=en","394 NICOLLS ROAD, EAST SETAUKET, NY 11733",DEA,NTBD2018,40.8968929,-73.1132981
228,SHERMAN RESIDENT TROOPERS OFFICE,CT,6784,"https://www.google.com/maps/place/State+Police/@41.5794154,-73.500051,17z/data=!4m8!1m2!2m1!1sSHERMAN+RESIDENT+TROOPERS+OFFICE!3m4!1s0x0:0x74f6cdbb90d4d7a3!8m2!3d41.5798811!4d-73.4973932?hl=en","9 RT 38 NORTH, SHERMAN, CT 06784",DEA,NTBD2018,41.5794154,-73.500051
234,SOMERVILLE POLICE DEPARTMENT,MA,2143,"http://maps.google.com/maps?q=220 WASHINGTON ST.,+SOMERVILLE,+MA+02143&hl=en","220 WASHINGTON ST., SOMERVILLE, MA 02143",DEA,NTBD2018,42.3790106,-71.0923961
237,SOUTHAMPTON FIRE/TOWN HALL PARKING LOT,MA,1073,"http://maps.google.com/maps?q=210 COLLEGE HIGHWAY,+SOUTHAMPTON,+MA+01073&hl=en","210 COLLEGE HIGHWAY, SOUTHAMPTON, MA 01073",DEA,NTBD2018,42.2296293,-72.7303588
240,BRIDGEHAMPTON COMMONS,NY,11932,"http://maps.google.com/maps?q=2044 MONTAUK HWY,+BRIDGEHAMPTON,+NY+11932&hl=en","2044 MONTAUK HWY, BRIDGEHAMPTON, NY 11932",DEA,NTBD2018,40.9329075,-72.3168623
253,NARRAGANSETT REGIONAL MIDDLE SCHOOL,MA,1468,"http://maps.google.com/maps?q=464 BALDWINVILLE ROAD,+TEMPLETON,+MA+01468&hl=en","464 BALDWINVILLE ROAD, TEMPLETON, MA 01468",DEA,NTBD2018,42.5883306,-72.0763718
267,VERMONT STATE POLICE - WESTMINSTER BARRACKS,VT,5346,"http://maps.google.com/maps?q=1330 WESTMINSTER HIGHTS ROAD,+PUTNEY,+VT+05346&hl=en","1330 WESTMINSTER HIGHTS ROAD, PUTNEY, VT 05346",DEA,NTBD2018,43.0889124,-72.4550642
276,WATERTOWN POLICE DEPARTMENT,MA,2472,"http://maps.google.com/maps?q=552 MAIN STREET,+WATERTOWN,+MA+02472&hl=en","552 MAIN STREET, WATERTOWN, MA 02472",DEA,NTBD2018,42.3713292,-71.2006882
277,WATERVLIET POLICE DEPARTMENT,NY,12189,"http://maps.google.com/maps?q=2-15TH STREET,+WATERVLIET,+NY+12189&hl=en","2-15TH STREET, WATERVLIET, NY 12189",DEA,NTBD2018,42.7254406,-73.7002364
283,NORTHERN WESTCHESTER HOSPITAL MAIN LOBBY,NY,10549,"http://maps.google.com/maps?q=400 MAIN ST.,+MOUNT KISCO,+NY+10549&hl=en","400 MAIN ST., MOUNT KISCO, NY 10549",DEA,NTBD2018,41.1977275,-73.7246006
290,WILLAIMSBURG PHARMACY,MA,1096,"http://maps.google.com/maps?q=49 MAIN ST,+WILLIAMSBURG,+MA+01096&hl=en","49 MAIN ST, WILLIAMSBURG, MA 01096",DEA,NTBD2018,42.3903426,-72.7211833
295,BELLOWS FALLS POLICE DEPARTMENT,VT,5101,"http://maps.google.com/maps?q=170 ROCKINGHAM STREET,+BELLOWS FALLS,+VT+05101&hl=en","170 ROCKINGHAM STREET, BELLOWS FALLS, VT 05101",DEA,NTBD2018,43.1389929,-72.4535991
297,DOVER POLICE DEPARTMENT,VT,5356,"http://maps.google.com/maps?q=246 VT RT 100,+WEST DOVER,+VT+05356&hl=en","246 VT RT 100, WEST DOVER, VT 05356",DEA,NTBD2018,42.9778771,-72.877349
303,WEATHERSFIELD TRANSFER STATION WEATHERSFIELD POLICE DEPARTMENT,VT,5151,"http://maps.google.com/maps?q=5024 VT RT 106,+PERKINSVILLE,+VT+05151&hl=en","5024 VT RT 106, PERKINSVILLE, VT 05151",DEA,NTBD2018,43.410191,-72.5136179
317,NORTH BEVERLY CVS PARKING LOT,MA,1915,"http://maps.google.com/maps?q=19 DODGE ST,+BEVERLY,+MA+01915&hl=en","19 DODGE ST, BEVERLY, MA 01915",DEA,NTBD2018,42.5774649,-70.8894279
340,CITYHALL BOARD OF HEALTH,MA,2149,"http://maps.google.com/maps?q=BROADWAY,+EVERETT,+MA+02149&hl=en","BROADWAY, EVERETT, MA 02149",DEA,NTBD2018,42.4089574,-71.0537459
345,GRANTHAM POLICE DEPARTMENT,NH,3753,"http://maps.google.com/maps?q=300 ROUTE 10 SOUTH,+GRANTHAM,+NH+03753&hl=en","300 ROUTE 10 SOUTH, GRANTHAM, NH 03753",DEA,NTBD2018,43.5140114,-72.1480534
346,GROVELAND POLICE DEPARTMENT SGT. ERIC C. RYAN,MA,1834,"http://maps.google.com/maps?q=181 MAIN STREET,+GROVELAND,+MA+01834&hl=en","181 MAIN STREETSTATION LOBBY, GROVELAND, MA 01834",DEA,NTBD2018,42.7679332,-71.0243202
347,HAMPSTEAD POLICE DEPARTMENT,NH,3841,"http://maps.google.com/maps?q=30 VETERANS WAY,+HAMPSTEAD,+NH+03841&hl=en","30 VETERANS WAY, HAMPSTEAD, NH 03841",DEA,NTBD2018,42.872025,-71.1817214
360,ELLIOT AT RIVER'S EDGE PHARMACY PARKING LOT,NH,3103,"http://maps.google.com/maps?q=185 QUEEN CITY AVENUE,+MANCHESTER,+NH+03103&hl=en","185 QUEEN CITY AVENUE, MANCHESTER, NH 03103",DEA,NTBD2018,42.9743441,-71.4684319
374,PLAINFIELD POLICE DEPARTMENT,NH,3770,"http://maps.google.com/maps?q=110 MAIN STREET,+MERIDEN,+NH+03770&hl=en","110 MAIN STREET, MERIDEN, NH 03770",DEA,NTBD2018,43.5471655,-72.2597615
381,RICHMOND POLICE,RI,2898,"http://maps.google.com/maps?q=1168 MAIN STREET,+WYOMING,+RI+02898&hl=en","1168 MAIN STREET, WYOMING, RI 02898",DEA,NTBD2018,41.514859,-71.699016
388,CVS PHARMACY,MA,2726,"http://maps.google.com/maps?q=1587 BRAYTON POINT ROAD,+SOMERSET,+MA+02726&hl=en","1587 BRAYTON POINT ROAD, SOMERSET, MA 02726",DEA,NTBD2018,41.7316646,-71.1729334
396,VERMONT STATE POLICE - ROYALTON BARRACKS,VT,5032,"http://maps.google.com/maps?q=2011 VT RT 107,+BETHEL,+VT+05032&hl=en","2011 VT RT 107, BETHEL, VT 05032",DEA,NTBD2018,43.8230273,-72.6046478
398,WALGREENS PHARMACY,MA,1880,"http://maps.google.com/maps?q=572 MAIN ST,+WAKEFIELD,+MA+01880&hl=en","572 MAIN ST, WAKEFIELD, MA 01880",DEA,NTBD2018,42.498662,-71.068289
399,WARREN COUNTY SHERIFF'S OFFICE,NY,12845,"http://maps.google.com/maps?q=1400 STATE ROUTE 9,+LAKE GEORGE,+NY+12845&hl=en","1400 STATE ROUTE 9, LAKE GEORGE, NY 12845",DEA,NTBD2018,43.3615425,-73.6993393
404,WILMINGTON PUBLIC SAFETY BUILDING,MA,1887,"http://maps.google.com/maps?q=1ADELAIDE ST,+WILMINGTON,+MA+01887&hl=en","1ADELAIDE ST, WILMINGTON, MA 01887",DEA,NTBD2018,42.5503688,-71.1709375
418,ROSE BAKER SENIOR CENTER PARKING LOT,MA,1930,"http://maps.google.com/maps?q=6 MANUEL LEWIS STREET,+GLOUCESTER,+MA+01930&hl=en","6 MANUEL LEWIS STREET, GLOUCESTER, MA 01930",DEA,NTBD2018,42.6137633,-70.6589475
432,SEABROOK POLICE DEPARTMENT,NH,3874,"http://maps.google.com/maps?q=7 LIBERTY LANE,+SEABROOK,+NH+03874&hl=en","7 LIBERTY LANE, SEABROOK, NH 03874",DEA,NTBD2018,42.884075,-70.8610106
435,BARNSTABLE POLICE DEPARTMENT,MA,2601,"http://maps.google.com/maps?q=1200 PHINNEY'S LANE,+HYANNIS,+MA+02601&hl=en","1200 PHINNEY'S LANEPO BOX B, HYANNIS, MA 02601",DEA,NTBD2018,41.6752385,-70.3123421
436,BARRINGTON POLICE DEPARTMENT,NH,3825,"http://maps.google.com/maps?q=774 FRANKLIN PIERCE HWY,+BARRINGTON,+NH+03825&hl=en","774 FRANKLIN PIERCE HWY, BARRINGTON, NH 03825",DEA,NTBD2018,43.2151553,-71.0124674
442,EASTHAM POLICE DEPARTMENT,MA,2642,"http://maps.google.com/maps?q=2550 STATE HWY,+EASTHAM,+MA+02642&hl=en","2550 STATE HWY, EASTHAM, MA 02642",DEA,NTBD2018,41.8308692,-69.9732288
445,FARMINGTON POLICE DEPARTMENT,NH,3835,"http://maps.google.com/maps?q=160 MAIN ST,+FARMINGTON,+NH+03835&hl=en","160 MAIN ST, FARMINGTON, NH 03835",DEA,NTBD2018,43.3992172,-71.0734193
464,SOMERSWORTH POLICE DEPT.,NH,3878,"http://maps.google.com/maps?q=12 LILAC LANE,+SOMERSWORTH,+NH+03878&hl=en","12 LILAC LANE, SOMERSWORTH, NH 03878",DEA,NTBD2018,43.2456866,-70.8874772
468,UNH POLICE DEPARTMENT,NH,3824,"http://maps.google.com/maps?q=18 WATERWORKS RD,+DURHAM,+NH+03824&hl=en","18 WATERWORKS RD, DURHAM, NH 03824",DEA,NTBD2018,43.1335341,-70.9388643
472,WESTPORT POLICE SUB-STATION,MA,2790,"http://maps.google.com/maps?q=596 STATE RD,+WESTPORT,+MA+02790&hl=en","596 STATE RD, WESTPORT, MA 02790",DEA,NTBD2018,41.6609447,-71.0836572
473,WESTPORT POLICE DEPARTMENT SUB STATION,MA,2790,"http://maps.google.com/maps?q=596 STATE ROAD,+WESTPORT,+MA+02790&hl=en","596 STATE ROAD, WESTPORT, MA 02790",DEA,NTBD2018,41.6609447,-71.0836572
484,CVS PHARMACY,NH,3249,"http://maps.google.com/maps?q=1371 LAKESHORE ROAD,+GILFORD,+NH+03249&hl=en","1371 LAKESHORE ROAD, GILFORD, NH 03249",DEA,NTBD2018,43.5622044,-71.4479942
490,NEW HAMPTON POLICE DEPARTMENT,NH,3256,"http://maps.google.com/maps?q=24 INTERVALE DR,+NEW HAMPTON,+NH+03256&hl=en","24 INTERVALE DR, NEW HAMPTON, NH 03256",DEA,NTBD2018,43.6074417,-71.6583962
508,RAYMOND FIRE DEPARTMENT OPERATED BY CUMBERLAND COUNTY SHERIFF'S OFFICE,ME,4071,"http://maps.google.com/maps?q=1443,+RAYMOND,+ME+04071&hl=en","1443ROOSEVELT TRAIL, RAYMOND, ME 04071",DEA,NTBD2018,43.903425,-70.479695
509,STANDISH TOWN HALL OPERATED BY CUMBERLAND COUNTY SHERIFF'S OFFICE,ME,4084,"http://maps.google.com/maps?q=175 NORTH EAST ROAD,+STANDISH,+ME+04084&hl=en","175 NORTH EAST ROAD, STANDISH, ME 04084",DEA,NTBD2018,43.7446454,-70.5404301
517,LAMOILLE COUNTY SHERIFFS DEPT,VT,5655,"http://maps.google.com/maps?q=162 COMMONWEALTH AVE,+HYDE PARK,+VT+05655&hl=en","162 COMMONWEALTH AVE, HYDE PARK, VT 05655",DEA,NTBD2018,44.5931687,-72.61741
522,LITTLETON POLICE DEPARTMENT,NH,3561,"http://maps.google.com/maps?q=2 KITTRIDGE LANE,+LITTLETON,+NH+03561&hl=en","2 KITTRIDGE LANE, LITTLETON, NH 03561",DEA,NTBD2018,44.3127434,-71.7893866
523,MADISON POLICE DEPARTMENT,NH,3849,"http://maps.google.com/maps?q=1923 VILLAGE ROAD,+MADISON,+NH+03849&hl=en","1923 VILLAGE ROAD, MADISON, NH 03849",DEA,NTBD2018,43.8973228,-71.155858
529,KINNEY DRUGS,VT,5060,"http://maps.google.com/maps?q=151 VT-12,+RANDOLPH,+VT+05060&hl=en","151 VT-12, RANDOLPH, VT 05060",DEA,NTBD2018,43.9120554,-72.6632239
531,ORANGE COUNTY SHERIFF'S DEPARTMENT,VT,5038,"http://maps.google.com/maps?q=11 VT ROUTE 113,+CHELSEA,+VT+05038&hl=en","11 VT ROUTE 113, CHELSEA, VT 05038",DEA,NTBD2018,43.988499,-72.4458006
543,THETFORD RECYCLING CENTER 8:30 AM - NOON,VT,5075,"http://maps.google.com/maps?q=4706 VT ROUTE 113,+THETFORD CENTER,+VT+05075&hl=en","4706 VT ROUTE 113, THETFORD CENTER, VT 05075",DEA,NTBD2018,43.8425128,-72.2480022
546,KINNEY DRUGS PHARMACY BERLIN POLICE DEPARTMENT,VT,5641,"http://maps.google.com/maps?q=800 US ROUTE 302,+BARRE,+VT+05641&hl=en","800 US ROUTE 302, BARRE, VT 05641",DEA,NTBD2018,44.1693491,-72.4606817
549,VERMONT STATE POLICE - MIDDLESEX BARRACKS,VT,5602,"http://maps.google.com/maps?q=1080 US ROUTE 2,+MIDDLESEX,+VT+05602&hl=en","1080 US ROUTE 2, MIDDLESEX, VT 05602",DEA,NTBD2018,44.300882,-72.6907291
551,TOWN OF WATERVILLE VALLEY POLICE DEPARTMENT,NH,3215,"http://maps.google.com/maps?q=14 TAC LN,+WATERVILLE VALLEY,+NH+03215&hl=en","14 TAC LN, WATERVILLE VALLEY, NH 03215",DEA,NTBD2018,43.9449901,-71.5101479
556,HANNAFORD SUPERMARKET OPERATED BY YORK COUNTY SHERIFF'S OFFICE,ME,4087,"http://maps.google.com/maps?q=20 SOKOKIS TRAIL,+WATERBORO,+ME+04087&hl=en","20 SOKOKIS TRAIL, WATERBORO, ME 04087",DEA,NTBD2018,43.5714133,-70.684193
561,AUGUSTA POLICE DEPARTMENT,ME,4330,"http://maps.google.com/maps?q=33 UNION STREET,+AUGUSTA,+ME+04330&hl=en","33 UNION STREETSUITE #1, AUGUSTA, ME 04330",DEA,NTBD2018,42.1736622,-70.9499896
568,DIXFIELD POLICE DEPARTMENT,ME,4224,"http://maps.google.com/maps?q=236 MAIN STREET,+DIXFIELD,+ME+04224&hl=en","236 MAIN STREET, DIXFIELD, ME 04224",DEA,NTBD2018,44.5307467,-70.4547589
571,FAIRFIELD POLICE DEPARTMENT,ME,4937,"http://maps.google.com/maps?q=1 POLICE PLAZA,+FAIRFIELD,+ME+04937&hl=en","1 POLICE PLAZA, FAIRFIELD, ME 04937",DEA,NTBD2018,44.5858566,-69.5948667
572,FALMOUTH POLICE DEPARTMENT,ME,4105,"http://maps.google.com/maps?q=2 MARSHALL DRIVE,+FALMOUTH,+ME+04105&hl=en","2 MARSHALL DRIVE, FALMOUTH, ME 04105",DEA,NTBD2018,43.7354642,-70.245726
577,SOUTH HERO RESCUE BUILDING,VT,5486,"http://maps.google.com/maps?q=329 US RT 2,+SOUTH HERO,+VT+05486&hl=en","329 US RT 2, SOUTH HERO, VT 05486",DEA,NTBD2018,44.6452476,-73.3056829
587,LISBON POLICE DEPARTMENT,ME,4250,"http://maps.google.com/maps?q=300 LISBON ST,+LISBON,+ME+04250&hl=en","300 LISBON ST, LISBON, ME 04250",DEA,NTBD2018,44.0251708,-70.0994617
603,SOMERSET COUNTY SHERIFF'S OFFICE JACKMAN DIVISION,ME,4945,"http://maps.google.com/maps?q=HEALD STREAM ROAD,+JACKMAN,+ME+04945&hl=en","HEALD STREAM ROAD, JACKMAN, ME 04945",DEA,NTBD2018,45.6410013,-70.2515624
615,WINTHROP POLICE DEPARTMENT,ME,4364,"http://maps.google.com/maps?q=15 TOWN HALL LANE,+WINTHROP,+ME+04364&hl=en","15 TOWN HALL LANE, WINTHROP, ME 04364",DEA,NTBD2018,44.3063066,-69.9697512
634,SHEEPSCOT VALLEY HEALTH CENTER OPERATED BY LINCOLN COUNTY SHERIFF'S OFFICE,ME,4341,"http://maps.google.com/maps?q=47 MAIN ST,+COOPERS MILLS,+ME+04341&hl=en","47 MAIN ST, COOPERS MILLS, ME 04341",DEA,NTBD2018,44.255454,-69.5462673
638,WALGREENS PHARMACY PARKING LOT - OPERATED BY PORTLAND PD,ME,4101,"http://maps.google.com/maps?q=340 ALLEN AVENUE,+PORTLAND,+ME+04101&hl=en","340 ALLEN AVENUE, PORTLAND, ME 04101",DEA,NTBD2018,43.699508,-70.28892
641,ROCKLAND POLICE DEPARTMENT,ME,4841,"http://maps.google.com/maps?q=1 POLICE PLAZA,+ROCKLAND,+ME+04841&hl=en","1 POLICE PLAZA, ROCKLAND, ME 04841",DEA,NTBD2018,44.101953,-69.1078849
643,SEARSPORT POLICE DEPARTMENT DAN RICH PUBLIC SAFETY BUILDING,ME,4974,"http://maps.google.com/maps?q=P O  BOX 499,+SEARSPORT,+ME+04974&hl=en","P O  BOX 4993 UNION STREET, SEARSPORT, ME 04974",DEA,NTBD2018,44.4607243,-68.9204718
645,LOWE'S HOME CENTER OPERATED BY THOMASTON PD,ME,4861,"http://maps.google.com/maps?q=164 NEW COUNTY ROAD,+THOMASTON,+ME+04861&hl=en","164 NEW COUNTY ROAD, THOMASTON, ME 04861",DEA,NTBD2018,44.0959748,-69.1331051
658,BAR HARBOR POLICE DEPARTMENT,ME,4609,"http://maps.google.com/maps?q=37 FIREFLY LANE,+BAR HARBOR,+ME+04609&hl=en","37 FIREFLY LANE, BAR HARBOR, ME 04609",DEA,NTBD2018,44.3882022,-68.2055941
662,CARIBOU POLICE DEPARTMENT,ME,4736,"http://maps.google.com/maps?q=25 HIGH STREET,+CARIBOU,+ME+04736&hl=en","25 HIGH STREET, CARIBOU, ME 04736",DEA,NTBD2018,46.8603279,-68.0110908
666,ELLSWORTH POLICE DEPARTMENT,ME,4605,"http://maps.google.com/maps?q=1 CITY HALL PLAZA,+ELLSWORTH,+ME+04605&hl=en","1 CITY HALL PLAZA, ELLSWORTH, ME 04605",DEA,NTBD2018,44.5425734,-68.4242924
667,FORT FAIRFIELD POLICE DEPARTMENT,ME,4742,"http://maps.google.com/maps?q=18 COMMUNITY CENTER DRIVE,+FORT FAIRFIELD,+ME+04742&hl=en","18 COMMUNITY CENTER DRIVE, FORT FAIRFIELD, ME 04742",DEA,NTBD2018,46.7705938,-67.8362821
670,HOULTON POLICE DEPARTMENT,ME,4730,"http://maps.google.com/maps?q=97 MILITARY STREET,+HOULTON,+ME+04730&hl=en","97 MILITARY STREET, HOULTON, ME 04730",DEA,NTBD2018,46.1243383,-67.8293697
671,LIMESTONE POLICE DEPARTMENT STACEY MAHAN,ME,4750,"http://maps.google.com/maps?q=93 MAIN STREET,+LIMESTONE,+ME+04750&hl=en","93 MAIN STREET, LIMESTONE, ME 04750",DEA,NTBD2018,46.906055,-67.8260594
672,LINCOLN PUBLIC SAFETY BUILDING,ME,4457,"http://maps.google.com/maps?q=1 ADAMS STREET,+LINCOLN,+ME+04457&hl=en","1 ADAMS STREET, LINCOLN, ME 04457",DEA,NTBD2018,45.3661823,-68.5036047
674,MILBRIDGE FIRE DEPARTMENT TRAINING ROOM - OPERATED BY MILBRIDGE PD,ME,4658,"http://maps.google.com/maps?q=16 SCHOOL ST,+MILBRIDGE,+ME+04658&hl=en","16 SCHOOL ST, MILBRIDGE, ME 04658",DEA,NTBD2018,44.5389962,-67.8822705
679,BELLS IGA SUPERMARKET PARKING LOT - OPERATED BY PD,ME,4473,"http://maps.google.com/maps?q=6 STILLWATER AVE,+ORONO,+ME+04473&hl=en","6 STILLWATER AVE, ORONO, ME 04473",DEA,NTBD2018,44.9054126,-68.6891997
682,PENOBSCOT NATION POLICE DEPARTMENT,ME,4468,"http://maps.google.com/maps?q=12 WABANAKI WAY,+INDIAN ISLAND,+ME+04468&hl=en","12 WABANAKI WAY, INDIAN ISLAND, ME 04468",DEA,NTBD2018,44.9521836,-68.6464457
689,WASHINGTON COUNTY SHERIFF'S OFFICE,ME,4654,"http://maps.google.com/maps?q=83 COURT STREET,+MACHIAS,+ME+04654&hl=en","83 COURT STREET, MACHIAS, ME 04654",DEA,NTBD2018,44.7141739,-67.4637155
694,ESSEX COUNTY SHERIFF'S OFFICE,NY,12950,"http://maps.google.com/maps?q=702 STOWERSVILLE RD.,+LEWIS,+NY+12950&hl=en","702 STOWERSVILLE RD., LEWIS, NY 12950",DEA,NTBD2018,44.281549,-73.536445
697,FULTON COUNTY SHERIFF OFFICE DAVID TOWNE,NY,12095,"http://maps.google.com/maps?q=2712 STATE HIGHWAY 29,+JOHNSTOWN,+NY+12095&hl=en","2712 STATE HIGHWAY 29, JOHNSTOWN, NY 12095",DEA,NTBD2018,43.018037,-74.3490858
698,FULTON COUNTY SHERIFF'S OFFICE,NY,12095,"http://maps.google.com/maps?q=2712 STATE HWY 29,+JOHNSTOWN,+NY+12095&hl=en","2712 STATE HWY 29, JOHNSTOWN, NY 12095",DEA,NTBD2018,43.018037,-74.3490858
705,MOHAWK TRIBAL POLICE DEPARTMENT,NY,13655,"http://maps.google.com/maps?q=545 STATE ROUTE 37,+HOGANSBURG,+NY+13655&hl=en","545 STATE ROUTE 37, HOGANSBURG, NY 13655",DEA,NTBD2018,44.9762413,-74.672556
718,EMERSON POLICE HQ,NJ,7630,"http://maps.google.com/maps?q=1 MUNICIPAL PLACE,+EMERSON,+NJ+07630&hl=en","1 MUNICIPAL PLACE, EMERSON, NJ 07630",DEA,NTBD2018,40.9751692,-74.0240428
749,CLINTON TOWNSHIP PUBLIC SAFETY BUILDING,NJ,8801,"http://maps.google.com/maps?q=1370 ROUTE 31 NORTH,+ANNANDALE,+NJ+08801&hl=en","1370 ROUTE 31 NORTH, ANNANDALE, NJ 08801",DEA,NTBD2018,40.625464,-74.8808042
756,ESSEX COUNTY SHERIFF'S OFFICE 973-621-4111,NJ,7105,"http://maps.google.com/maps?q=525 WEST MARKET ST,+NEWARK,+NJ+07105&hl=en","525 WEST MARKET STPATROL HQ, NEWARK, NJ 07105",DEA,NTBD2018,40.7519324,-74.1939842
760,RIDGEDALE MIDDLE SCHOOL 973-377-2200,NJ,7932,"http://maps.google.com/maps?q=71 RIDGEDALE AVE.,+FLORHAM PARK,+NJ+07932&hl=en","71 RIDGEDALE AVE., FLORHAM PARK, NJ 07932",DEA,NTBD2018,40.7783391,-74.4026061
764,FREEHOLD RACEWAY MALL,NJ,7728,"http://maps.google.com/maps?q=3710 RT. 9,+FREEHOLD,+NJ+07728&hl=en","3710 RT. 9CAROUSEL ENTRANCE, FREEHOLD, NJ 07728",DEA,NTBD2018,40.2532576,-74.3011834
765,FREEHOLD TWP. POLICE DEPARTMENT 732-462-7500,NJ,7728,"http://maps.google.com/maps?q=1 MUNICIPAL PLAZA,+FREEHOLD,+NJ+07728&hl=en","1 MUNICIPAL PLAZA, FREEHOLD, NJ 07728",DEA,NTBD2018,40.2355119,-74.2946609
767,GARWOOD POLICE DEPARTMENT 908-789-1500,NJ,7027,"http://maps.google.com/maps?q=403 SOUTH AVE.,+GARWOOD,+NJ+07027&hl=en","403 SOUTH AVE., GARWOOD, NJ 07027",DEA,NTBD2018,40.6511167,-74.3257995
769,HARDING TOWNSHIP POLICE DEPARTMENT,NJ,7976,"http://maps.google.com/maps?q=21 BLUE MILL ROAD,+NEW VERNON,+NJ+07976&hl=en","21 BLUE MILL ROAD, NEW VERNON, NJ 07976",DEA,NTBD2018,40.7476845,-74.4928371
776,FALLON MANOR BETWEEN THE HOURS OF 1:00 PM - 1:15 PM,NJ,7734,"http://maps.google.com/maps?q=43 CHURCH ST.,+KEANSBURG,+NJ+07734&hl=en","43 CHURCH ST., KEANSBURG, NJ 07734",DEA,NTBD2018,40.4419556,-74.1345804
777,GRANVILLE TOWERS BETWEEN THE HOURS OF 1:15 PM - 1:30 PM,NJ,7734,"http://maps.google.com/maps?q=1 CHURCH ST.,+KEANSBURG,+NJ+07734&hl=en","1 CHURCH ST., KEANSBURG, NJ 07734",DEA,NTBD2018,40.4423324,-74.1322865
779,MCGRATH TOWERS BETWEEN THE HOURS OF 1:30 PM - 1:45 PM,NJ,7734,"http://maps.google.com/maps?q=25 HANCOCK ST.,+KEANSBURG,+NJ+07734&hl=en","25 HANCOCK ST., KEANSBURG, NJ 07734",DEA,NTBD2018,40.4399557,-74.130979
782,LAWRENCE TWP. POLICE DEPARTMENT 609-896-0225,NJ,8648,"http://maps.google.com/maps?q=2211 LAWRENCE RD.,+LAWRENCE TOWNSHIP,+NJ+08648&hl=en","2211 LAWRENCE RD., LAWRENCE TOWNSHIP, NJ 08648",DEA,NTBD2018,40.2837942,-74.7328839
790,MENDHAM TWP. PD,NJ,7926,"http://maps.google.com/maps?q=3 CHERRY LANE,+BROOKSIDE,+NJ+07926&hl=en","3 CHERRY LANE, BROOKSIDE, NJ 07926",DEA,NTBD2018,40.7933373,-74.5683659
796,STOP & SHOP SUPERMARKET,NJ,7950,"http://maps.google.com/maps?q=245 US 202,+MORRIS PLAINS,+NJ+07950&hl=en","245 US 202, MORRIS PLAINS, NJ 07950",DEA,NTBD2018,40.8216966,-74.481455
798,MOUNTAINSIDE POLICE DEPT.,NJ,7092,"http://maps.google.com/maps?q=1385 ROUTE 22 EAST,+MOUNTAINSIDE,+NJ+07092&hl=en","1385 ROUTE 22 EAST, MOUNTAINSIDE, NJ 07092",DEA,NTBD2018,40.6717803,-74.3559523
801,1ST PRECINCT,NJ,7108,"http://maps.google.com/maps?q=10  17TH AVE.,+NEWARK,+NJ+07108&hl=en","10  17TH AVE., NEWARK, NJ 07108",DEA,NTBD2018,40.7304326,-74.1908333
802,2ND PRECINCT,NJ,7108,"http://maps.google.com/maps?q=1 LINCOLN AVE.,+NEWARK,+NJ+07108&hl=en","1 LINCOLN AVE., NEWARK, NJ 07108",DEA,NTBD2018,40.7655143,-74.1659706
803,3RD PRECINCT,NJ,7102,"http://maps.google.com/maps?q=649 MARKET ST.,+NEWARK,+NJ+07102&hl=en","649 MARKET ST., NEWARK, NJ 07102",DEA,NTBD2018,40.7307181,-74.1491819
804,4TH PRECINCT,NJ,7108,"http://maps.google.com/maps?q=247 16TH AVE.,+NEWARK,+NJ+07108&hl=en","247 16TH AVE., NEWARK, NJ 07108",DEA,NTBD2018,40.7368992,-74.2070867
807,POLICE MAIN DESK,NJ,7108,"http://maps.google.com/maps?q=22 FRANKLIN ST.,+NEWARK,+NJ+07108&hl=en","22 FRANKLIN ST., NEWARK, NJ 07108",DEA,NTBD2018,40.7313299,-74.1730944
808,SPECIAL OPERATIONS DIVISION,NJ,7108,"http://maps.google.com/maps?q=472 ORANGE ST.,+NEWARK,+NJ+07108&hl=en","472 ORANGE ST., NEWARK, NJ 07108",DEA,NTBD2018,40.7529792,-74.1901364
809,YOUTH AID SECTION/ CJAPU,NJ,7108,"http://maps.google.com/maps?q=43 DICKERSON ST.,+NEWARK,+NJ+07108&hl=en","43 DICKERSON ST., NEWARK, NJ 07108",DEA,NTBD2018,40.7469732,-74.1850135
812,OCEANPORT POLICE DEPT.,NJ,7757,"http://maps.google.com/maps?q=282 HILDRETH AVE.,+OCEANPORT,+NJ+07757&hl=en","282 HILDRETH AVE., OCEANPORT, NJ 07757",DEA,NTBD2018,40.316629,-74.034965
815,PEAPACK & GLADSTONE POLICE DEPARTMENT MUNICIPAL BUILDING,NJ,7977,"http://maps.google.com/maps?q=1 SCHOOL ST.,+PEAPACK,+NJ+07977&hl=en","1 SCHOOL ST., PEAPACK, NJ 07977",DEA,NTBD2018,40.7174607,-74.6586335
816,PICATINNY ARSENAL POLICE DEPARTMENT 973-724-3817,NJ,7806,"http://maps.google.com/maps?q=173 BUFFINGTON RD.,+PICATINNY ARSENAL,+NJ+07806&hl=en","173 BUFFINGTON RD., PICATINNY ARSENAL, NJ 07806",DEA,NTBD2018,40.9399603,-74.56177
818,RAHWAY POLICE DEPARTMENT,NJ,7065,"http://maps.google.com/maps?q=1 CITY HALL PLAZA,+RAHWAY,+NJ+07065&hl=en","1 CITY HALL PLAZA, RAHWAY, NJ 07065",DEA,NTBD2018,40.6047017,-74.2742807
821,RARITAN TOWNSHIP POLICE DEPARTMENT,NJ,8822,"http://maps.google.com/maps?q=2 MUNICIPAL DRIVE,+FLEMINGTON,+NJ+08822&hl=en","2 MUNICIPAL DRIVE, FLEMINGTON, NJ 08822",DEA,NTBD2018,40.5041176,-74.8728152
827,SHREWSBURY BOROUGH POLICE DEPARTMENT,NJ,7702,"http://maps.google.com/maps?q=419 SYCAMORE AVENUE,+SHREWSBURY,+NJ+07702&hl=en","419 SYCAMORE AVENUE, SHREWSBURY, NJ 07702",DEA,NTBD2018,40.32304,-74.062499
830,SOUTH BRUNSWICK POLICE DEPARTMENT 732-329-4000,NJ,8852,"http://maps.google.com/maps?q=540 RIDGE RD.,+MONMOUTH JUNCTION,+NJ+08852&hl=en","540 RIDGE RD., MONMOUTH JUNCTION, NJ 08852",DEA,NTBD2018,40.3828971,-74.5330539
837,WEST CALDWELL PD,NJ,7006,"http://maps.google.com/maps?q=21 CLINTON ROAD,+WEST CALDWELL,+NJ+07006&hl=en","21 CLINTON ROAD, WEST CALDWELL, NJ 07006",DEA,NTBD2018,40.8506079,-74.2922498
851,ASBURY PARK POLICE DEPT.,NJ,7712,"http://maps.google.com/maps?q=1 MUNICIPAL PLAZA,+ASBURY PARK,+NJ+07712&hl=en","1 MUNICIPAL PLAZA, ASBURY PARK, NJ 07712",DEA,NTBD2018,40.2168149,-74.013682
852,AVON POLICE DEPARTMENT 732-502-4500,NJ,7717,"http://maps.google.com/maps?q=301 MAIN ST.,+AVON BY THE SEA,+NJ+07717&hl=en","301 MAIN ST., AVON BY THE SEA, NJ 07717",DEA,NTBD2018,40.1907648,-74.0230656
854,BELMAR POLICE DEPARTMENT 732-681-1700,NJ,7719,"http://maps.google.com/maps?q=601 MAIN ST.,+BELMAR,+NJ+07719&hl=en","601 MAIN ST., BELMAR, NJ 07719",DEA,NTBD2018,40.1830471,-74.0247794
858,GIANT PHARMACY #6366,PA,18020,"http://maps.google.com/maps?q=3926 NAZARETH PIKE,+BETHLEHEM,+PA+18020&hl=en","3926 NAZARETH PIKE, BETHLEHEM, PA 18020",DEA,NTBD2018,40.6779332,-75.3427304
859,"ST. LUKES HOSPITAL, ANDERSON CAMPUS",PA,18045,"http://maps.google.com/maps?q=1872 ST LUKES BLVD,+EASTON,+PA+18045&hl=en","1872 ST LUKES BLVD, EASTON, PA 18045",DEA,NTBD2018,40.6476369,-75.2930475
862,BRADLEY BEACH POLICE DEPARTMENT 732-775-6900,NJ,7720,"http://maps.google.com/maps?q=701 MAIN STREET,+BRADLEY BEACH,+NJ+07720&hl=en","701 MAIN STREET, BRADLEY BEACH, NJ 07720",DEA,NTBD2018,40.2043512,-74.017802
865,CATASAUQUA POLICE DEPARTMENT,PA,18032,"http://maps.google.com/maps?q=90 BRIDGE ST.,+CATASAUQUA,+PA+18032&hl=en","90 BRIDGE ST., CATASAUQUA, PA 18032",DEA,NTBD2018,40.65335,-75.4750281
868,CITY OF EASTON POLICE DEPT,PA,18042,"http://maps.google.com/maps?q=48 N 4TH ST,+EASTON,+PA+18042&hl=en","48 N 4TH ST, EASTON, PA 18042",DEA,NTBD2018,40.6923725,-75.2115199
869,RIVRESIDE REMEDIES SUSAN CLARK,NY,12723,"http://maps.google.com/maps?q=39 LOWER MAIN STREET,+CALLICOON,+NY+12723&hl=en","39 LOWER MAIN STREET, CALLICOON, NY 12723",DEA,NTBD2018,41.766401,-75.058535
873,DUBLIN IGA FOODSTORE,PA,18917,"http://maps.google.com/maps?q=161 NORTH MAIN STREET,+DUBLIN,+PA+18917&hl=en","161 NORTH MAIN STREET, DUBLIN, PA 18917",DEA,NTBD2018,40.3753528,-75.2063861
878,FOREST CITY AREA EMERGENCY SERVICES,PA,18421,"http://maps.google.com/maps?q=380 RAILROAD STREET,+FOREST CITY,+PA+18421&hl=en","380 RAILROAD STREET, FOREST CITY, PA 18421",DEA,NTBD2018,41.6477401,-75.4646499
883,HILLTOWN TOWNSHIP MUNICIPAL BUILDING,PA,18927,"http://maps.google.com/maps?q=13 WEST CREAMERY ROAD,+HILLTOWN,+PA+18927&hl=en","13 WEST CREAMERY ROAD, HILLTOWN, PA 18927",DEA,NTBD2018,40.3417679,-75.255725
895,MERCER COUNTY SHERIFF'S OFFICE 609-989-6111,NJ,8618,"http://maps.google.com/maps?q=640 S. BROAD STREET,+TRENTON,+NJ+08618&hl=en","640 S. BROAD STREETLOT ACROSS FROM BUILDING, TRENTON, NJ 08618",DEA,NTBD2018,40.209289,-74.7564233
909,OCEAN POLICE DEPARTMENT 7325311800,NJ,7755,"http://maps.google.com/maps?q=399 MONMOUTH RD.,+OAKHURST,+NJ+07755&hl=en","399 MONMOUTH RD., OAKHURST, NJ 07755",DEA,NTBD2018,40.253706,-74.0132114
914,PA STATE POLICE,PA,18017,"http://maps.google.com/maps?q=2960 AIRPORT RD,+BETHLEHEM,+PA+18017&hl=en","2960 AIRPORT RD, BETHLEHEM, PA 18017",DEA,NTBD2018,40.6488081,-75.4296224
918,ST LUKES UNIVERSAL HEALTH NETWORK MONROE CAMPUS,PA,18360,"http://maps.google.com/maps?q=100 ST LUKES LN,+STROUDSBURG,+PA+18360&hl=en","100 ST LUKES LN, STROUDSBURG, PA 18360",DEA,NTBD2018,40.9974458,-75.2600034
926,SEASIDE PARK POLICE DEPT.,NJ,8752,"http://maps.google.com/maps?q=1 MUNICIPAL PLAZA,+SEASIDE PARK,+NJ+08752&hl=en","1 MUNICIPAL PLAZA, SEASIDE PARK, NJ 08752",DEA,NTBD2018,39.918684,-74.0791314
940,ANN'S CHOICE **RESIDENTS ONLY**,PA,18974,"http://maps.google.com/maps?q=3000 ANN'S CHOICE WAY,+WARMINSTER,+PA+18974&hl=en","3000 ANN'S CHOICE WAY, WARMINSTER, PA 18974",DEA,NTBD2018,40.199689,-75.070481
949,ALDAN MUNICIPAL BUILDING,PA,19018,"http://maps.google.com/maps?q=ONE WEST PROVIDENCE ROAD,+ALDAN,+PA+19018&hl=en","ONE WEST PROVIDENCE ROAD, ALDAN, PA 19018",DEA,NTBD2018,39.9223318,-75.2876326
953,CAMDEN POLICE DEPARTMENT,DE,19934,"http://maps.google.com/maps?q=1783 FRIENDS WAY,+CAMDEN WYOMING,+DE+19934&hl=en","1783 FRIENDS WAY, CAMDEN WYOMING, DE 19934",DEA,NTBD2018,39.1081604,-75.5448481
959,DELANCO TOWNSHIP POLICE DEPARTMENT,NJ,8075,"http://maps.google.com/maps?q=770 COOPERSTOWN ROAD,+DELANCO,+NJ+08075&hl=en","770 COOPERSTOWN ROAD, DELANCO, NJ 08075",DEA,NTBD2018,40.0484198,-74.9406003
962,CAPE MAY FERRY TERMINAL 609-889-7260,NJ,8204,"http://maps.google.com/maps?q=1200 SANDMAN BLVD.,+CAPE MAY,+NJ+08204&hl=en","1200 SANDMAN BLVD., CAPE MAY, NJ 08204",DEA,NTBD2018,38.9686933,-74.9213255
964,CHRISTIANA CARE SURGI CENTER,DE,19718,"http://maps.google.com/maps?q=4755 OGLETOWN STANTON ROAD,+NEWARK,+DE+19718&hl=en","4755 OGLETOWN STANTON ROAD, NEWARK, DE 19718",DEA,NTBD2018,39.6878769,-75.6689877
965,DELAWARE STATE POLICE - TROOP 2,DE,19702,"http://maps.google.com/maps?q=100 LAGRANGE AVE,+NEWARK,+DE+19702&hl=en","100 LAGRANGE AVE, NEWARK, DE 19702",DEA,NTBD2018,39.6060795,-75.7284173
967,DELRAN TWP. POLICE DEPARTMENT 856-461-4498,NJ,8075,"http://maps.google.com/maps?q=900 CHESTER AVE.,+DELRAN TOWNSHIP,+NJ+08075&hl=en","900 CHESTER AVE., DELRAN TOWNSHIP, NJ 08075",DEA,NTBD2018,40.0209157,-74.9600573
994,MIDDLETOWN POLICE DEPARTMENT,DE,19709,"http://maps.google.com/maps?q=130 HAMPDEN ROAD,+MIDDLETOWN,+DE+19709&hl=en","130 HAMPDEN ROAD, MIDDLETOWN, DE 19709",DEA,NTBD2018,39.451321,-75.681639
995,MILFORD POLICE DEPARTMENT,DE,19963,"http://maps.google.com/maps?q=400 NE FRONT STREET,+MILFORD,+DE+19963&hl=en","400 NE FRONT STREET, MILFORD, DE 19963",DEA,NTBD2018,38.9165802,-75.4206794
999,UNIVERSITY OF THE SCIENCES ROSENBERGER HALL,PA,19104,"http://maps.google.com/maps?q=600 S 43RD ST,+PHILADELPHIA,+PA+19104&hl=en","600 S 43RD STROOM 100, PHILADELPHIA, PA 19104",DEA,NTBD2018,39.9465441,-75.208133
1008,PERRYVILLE POLICE DEPARTMENT,MD,21903,"http://maps.google.com/maps?q=2 PERRYVILLE TOWN CENTER DRIVE,+PERRYVILLE,+MD+21903&hl=en","2 PERRYVILLE TOWN CENTER DRIVE, PERRYVILLE, MD 21903",DEA,NTBD2018,39.5784765,-76.0671184
1009,FIRE DEPARTMENT ENGINE 19 / LADDER 8,PA,19120,"http://maps.google.com/maps?q=300 E. CHELTEN AVENUE,+PHILADELPHIA,+PA+19120&hl=en","300 E. CHELTEN AVENUE, PHILADELPHIA, PA 19120",DEA,NTBD2018,40.0387662,-75.1711803
1014,FIRE DEPARTMENT ENGINE 45 / LADDER 14,PA,19132,"http://maps.google.com/maps?q=2401 N. 26TH ST.,+PHILADELPHIA,+PA+19132&hl=en","2401 N. 26TH ST., PHILADELPHIA, PA 19132",DEA,NTBD2018,39.9921471,-75.1747195
1034,PLYMOUTH TOWNSHIP POLICE DEPARTMENT,PA,19462,"http://maps.google.com/maps?q=700 BELVOIR ROAD,+PLYMOUTH MEETING,+PA+19462&hl=en","700 BELVOIR ROAD, PLYMOUTH MEETING, PA 19462",DEA,NTBD2018,40.1284518,-75.3090572
1040,RUNNEMEDE POLICE DEPARTMENT,NJ,8078,"http://maps.google.com/maps?q=24 N. BLACK HORSE PIKE,+RUNNEMEDE,+NJ+08078&hl=en","24 N. BLACK HORSE PIKE, RUNNEMEDE, NJ 08078",DEA,NTBD2018,39.8495432,-75.0724762
1041,SALEM CITY POLICE DEPARTMENT,NJ,8079,"http://maps.google.com/maps?q=129 WEST BROADWAY,+SALEM,+NJ+08079&hl=en","129 WEST BROADWAY, SALEM, NJ 08079",DEA,NTBD2018,39.571819,-75.469258
1042,SEA ISLE CITY POLICE DEPARTMENT 1ST FLOOR,NJ,8243,"http://maps.google.com/maps?q=233 JOHN F. KENNEDY BLVD.,+SEA ISLE CITY,+NJ+08243&hl=en","233 JOHN F. KENNEDY BLVD., SEA ISLE CITY, NJ 08243",DEA,NTBD2018,39.1574563,-74.6941537
1043,ATLANTIC APOTHECARY,DE,19977,"http://maps.google.com/maps?q=103 S. DUPONT BLVD.,+SMYRNA,+DE+19977&hl=en","103 S. DUPONT BLVD.SUITE #2, SMYRNA, DE 19977",DEA,NTBD2018,39.3009456,-75.6030314
1045,SOUTH HARRISON TWP. MUNICIPAL BUILDING 856-769-3737,NJ,8062,"http://maps.google.com/maps?q=664 HARRISONVILLE RD.,+MULLICA HILL,+NJ+08062&hl=en","664 HARRISONVILLE RD., MULLICA HILL, NJ 08062",DEA,NTBD2018,39.69106,-75.26891
1048,INDIAN VALLEY PUBLIC LIBRARY,PA,18969,"http://maps.google.com/maps?q=100 EAST CHURCH AVENUE,+TELFORD,+PA+18969&hl=en","100 EAST CHURCH AVENUE, TELFORD, PA 18969",DEA,NTBD2018,40.3297959,-75.3325634
1052,UPPER DUBLIN TOWNSHIP POLICE DEPT.,PA,19034,"http://maps.google.com/maps?q=801 LOCH ALSH AVENUE,+FORT WASHINGTON,+PA+19034&hl=en","801 LOCH ALSH AVENUE, FORT WASHINGTON, PA 19034",DEA,NTBD2018,40.151888,-75.200889
1053,UPPER GWYNEDD TOWNSHIP POLICE DEPARTMENT,PA,19486,"http://maps.google.com/maps?q=1 PARKSIDE PLACE,+WEST POINT,+PA+19486&hl=en","1 PARKSIDE PLACE, WEST POINT, PA 19486",DEA,NTBD2018,40.5120924,-80.0284329
1058,UPPER PROVIDENCE TWP. POLICE DEPT.,PA,19456,"http://maps.google.com/maps?q=1286 BLACK ROCK RD.,+OAKS,+PA+19456&hl=en","1286 BLACK ROCK RD., OAKS, PA 19456",DEA,NTBD2018,40.161588,-75.485566
1062,WEST POTTSGROVE TWP. POLICE DEPARTMENT,PA,19464,"http://maps.google.com/maps?q=980 N. GROSSTOWN,+POTTSTOWN,+PA+19464&hl=en","980 N. GROSSTOWNSTOWE, A, POTTSTOWN, PA 19464",DEA,NTBD2018,40.2604146,-75.6771345
1064,WILLINGBORO TWP. MUNICIPAL BUILDING,NJ,8046,"http://maps.google.com/maps?q=1 REV. MARTIN LUTHER KING JR. DRIVE,+WILLINGBORO,+NJ+08046&hl=en","1 REV. MARTIN LUTHER KING JR. DRIVE, WILLINGBORO, NJ 08046",DEA,NTBD2018,40.0305101,-74.8959088
1066,WINSLOW TWP. POLICE DEPARTMENT 609-567-0700,NJ,8037,"http://maps.google.com/maps?q=125 SOUTH RT. 73,+BRADDOCK,+NJ+08037&hl=en","125 SOUTH RT. 73, BRADDOCK, NJ 08037",DEA,NTBD2018,39.7110372,-74.8943751
1069,CAROLINE COUNTY SHERIFF'S OFFICE,MD,21629,"http://maps.google.com/maps?q=101 GAY STREET,+DENTON,+MD+21629&hl=en","101 GAY STREET, DENTON, MD 21629",DEA,NTBD2018,38.887738,-75.8331286
1070,DENTON WALMART,MD,21629,"http://maps.google.com/maps?q=610 LEGION ROAD,+DENTON,+MD+21629&hl=en","610 LEGION ROAD, DENTON, MD 21629",DEA,NTBD2018,38.8744181,-75.8216187
1072,LEWES FERRY TERMINAL,DE,19958,"http://maps.google.com/maps?q=43 CAPE HENLOPEN DRIVE,+LEWES,+DE+19958&hl=en","43 CAPE HENLOPEN DRIVE, LEWES, DE 19958",DEA,NTBD2018,38.7819818,-75.1189178
1086,QUEEN ANNE'S COUNTY SHERIFF'S OFFICE,MD,21617,"http://maps.google.com/maps?q=505 RAILROAD AVENUE,+CENTREVILLE,+MD+21617&hl=en","505 RAILROAD AVENUE, CENTREVILLE, MD 21617",DEA,NTBD2018,39.0425167,-76.0607643
1088,CVS,DE,19975,"http://maps.google.com/maps?q=36252 LIGHTHOUSE RD,+SELBYVILLE,+DE+19975&hl=en","36252 LIGHTHOUSE RD, SELBYVILLE, DE 19975",DEA,NTBD2018,38.4687429,-75.1166827
1089,SELBYVILLE TOWN HALL,DE,19975,"http://maps.google.com/maps?q=68 W CHURCH ST,+SELBYVILLE,+DE+19975&hl=en","68 W CHURCH ST, SELBYVILLE, DE 19975",DEA,NTBD2018,38.4573388,-75.2275771
1144,1ST PRECINCT,NJ,7108,"http://maps.google.com/maps?q=10  17TH AVE.,+NEWARK,+NJ+07108&hl=en","10 17TH AVE., NEWARK, NJ 07108",DEA,NTBD2018,40.7304326,-74.1908333
1163,GREENE FIRE DEPARTMENT,NY,13778,"http://maps.google.com/maps?q=NORTH CANAL STREET,+GREENE,+NY+13778&hl=en","NORTH CANAL STREET, GREENE, NY 13778",DEA,NTBD2018,42.3337335,-75.768701
1164,NORTH NORWICH FIRE DEPARTMENT,NY,13814,"http://maps.google.com/maps?q=108 BEACH LANE,+NORTH NORWICH,+NY+13814&hl=en","108 BEACH LANE, NORTH NORWICH, NY 13814",DEA,NTBD2018,42.6173521,-75.524866
1166,MEDICINE SHOPPE,NY,13037,"http://maps.google.com/maps?q=1315 W GENESEE STREET,+CHITTENANGO,+NY+13037&hl=en","1315 W GENESEE STREET, CHITTENANGO, NY 13037",DEA,NTBD2018,43.0487941,-75.9027076
1175,POLICE HQ,NY,13104,"http://maps.google.com/maps?q=1 ARKIE ALBANESE AVE,+MANLIUS,+NY+13104&hl=en","1 ARKIE ALBANESE AVE, MANLIUS, NY 13104",DEA,NTBD2018,43.0038199,-75.9845184
1178,NYS UNIVERSITY POLICE SUNY ONEONTA,NY,13820,"http://maps.google.com/maps?q=ALUMNI HALL,+ONEONTA,+NY+13820&hl=en","ALUMNI HALL51 SOUTH WEST DORM DRIVE, ONEONTA, NY 13820",DEA,NTBD2018,42.4650732,-75.0675164
1185,KINNEY DRUGS,NY,13205,"http://maps.google.com/maps?q=104 LAFAYETTE RD.,+SYRACUSE,+NY+13205&hl=en","104 LAFAYETTE RD., SYRACUSE, NY 13205",DEA,NTBD2018,43.0012075,-76.130625
1198,KINNEY DRUGS,NY,13642,"http://maps.google.com/maps?q=371 MAIN STREET,+GOUVERNEUR,+NY+13642&hl=en","371 MAIN STREET, GOUVERNEUR, NY 13642",DEA,NTBD2018,44.3404708,-75.4559005
1208,TIOGA COUNTY SHERIFF'S OFFICE TRINITY-CASA OF TIOGA,NY,13827,"http://maps.google.com/maps?q=ACROSS FROM AGWAY,+OWEGO,+NY+13827&hl=en","ACROSS FROM AGWAY6 MCMASTER ST., OWEGO, NY 13827",DEA,NTBD2018,42.1083169,-76.2698773
1209,SHERIFF'S HQ,NY,14850,"http://maps.google.com/maps?q=779 WARREN ROAD,+ITHACA,+NY+14850&hl=en","779 WARREN ROAD, ITHACA, NY 14850",DEA,NTBD2018,42.4927791,-76.4668825
1212,MILLER'S PHARMACY,PA,18853,"http://maps.google.com/maps?q=ROUTE 6,+WYALUSING,+PA+18853&hl=en","ROUTE 6, WYALUSING, PA 18853",DEA,NTBD2018,41.6662288,-76.263847
1216,CVS PHARMACY,PA,18657,"http://maps.google.com/maps?q=BUSINESS ROUTE 6 AND SR 29,+TUNKHANNOCK,+PA+18657&hl=en","BUSINESS ROUTE 6 AND SR 29, TUNKHANNOCK, PA 18657",DEA,NTBD2018,41.5383153,-75.9487102
1217,LECH'S PHARMACY,PA,18657,"http://maps.google.com/maps?q=SR0006,+TUNKHANNOCK,+PA+18657&hl=en","SR0006, TUNKHANNOCK, PA 18657",DEA,NTBD2018,41.4600118,-75.8633884
1218,RITE AID,PA,18657,"http://maps.google.com/maps?q=420 TIOGA PLZ,+TUNKHANNOCK,+PA+18657&hl=en","420 TIOGA PLZ, TUNKHANNOCK, PA 18657",DEA,NTBD2018,41.5418231,-75.9623776
1221,RIVERWALK PLAZA,NY,14895,"http://maps.google.com/maps?q=STATE ROUTE 417,+WELLSVILLE,+NY+14895&hl=en","STATE ROUTE 417, WELLSVILLE, NY 14895",DEA,NTBD2018,42.1340577,-77.91199
1223,BATAVIA POLICE DEPARTMENT,NY,14020,"http://maps.google.com/maps?q=10 W. MAIN STREET,+BATAVIA,+NY+14020&hl=en","10 W. MAIN STREET, BATAVIA, NY 14020",DEA,NTBD2018,42.9986125,-78.1875696
1224,BENTON VOL FIRE STATION,PA,17814,"http://maps.google.com/maps?q=150 COLLEY ST,+BENTON,+PA+17814&hl=en","150 COLLEY ST, BENTON, PA 17814",DEA,NTBD2018,41.1936685,-76.3847998
1226,CATTARAUGUS COUNTY OFFICE BUILDING,NY,14760,"http://maps.google.com/maps?q=1 LEO MOSS DRIVE,+OLEAN,+NY+14760&hl=en","1 LEO MOSS DRIVE, OLEAN, NY 14760",DEA,NTBD2018,42.08635,-78.4500609
1230,PEMBROKE TOWN HIGWAY BARNS,NY,14056,"http://maps.google.com/maps?q=ROUTES 5 & 77,+EAST PEMBROKE,+NY+14056&hl=en","ROUTES 5 & 77, EAST PEMBROKE, NY 14056",DEA,NTBD2018,42.903317,-76.8309151
1232,LEROY POLICE DEPARTMENT VILLAGE HALL,NY,14482,"http://maps.google.com/maps?q=3 WEST MAIN STREET,+LE ROY,+NY+14482&hl=en","3 WEST MAIN STREETRTS 5 & 19, LE ROY, NY 14482",DEA,NTBD2018,42.9615822,-77.1388646
1240,TYRONE FIRE DEPARTMENT 28 APRIL 2018,NY,14887,"http://maps.google.com/maps?q=3600 STATE RTE 226,+TYRONE,+NY+14887&hl=en","3600 STATE RTE 226, TYRONE, NY 14887",DEA,NTBD2018,42.4041845,-77.0552222
1241,SULLIVAN COUNTY SHERIFF'S OFFICE,PA,18626,"http://maps.google.com/maps?q=245 MUNCY ST,+LAPORTE,+PA+18626&hl=en","245 MUNCY ST, LAPORTE, PA 18626",DEA,NTBD2018,41.4236633,-76.4934037
1242,WELLSBORO POLICE DEPARTMENT,PA,16901,"http://maps.google.com/maps?q=28 CRAFTON STREET,+WELLSBORO,+PA+16901&hl=en","28 CRAFTON STREET, WELLSBORO, PA 16901",DEA,NTBD2018,41.7472689,-77.3002058
1274,SAINT LUKES MINERS CAMPUS,PA,18218,"http://maps.google.com/maps?q=360 WEST RUDDLE ST,+COALDALE,+PA+18218&hl=en","360 WEST RUDDLE ST, COALDALE, PA 18218",DEA,NTBD2018,40.8212655,-75.9145494
1278,TAMAQUA POLICE DEPARTMENT,PA,18252,"http://maps.google.com/maps?q=320 BROAD STREET,+TAMAQUA,+PA+18252&hl=en","320 BROAD STREET, TAMAQUA, PA 18252",DEA,NTBD2018,40.7968659,-75.9647844
1281,SUMMIT HILL POLICE DEPARTMENT,PA,18250,"http://maps.google.com/maps?q=40 W. AMIDON STREET, SUITE 1,+SUMMIT HILL,+PA+18250&hl=en","40 W. AMIDON STREET, SUITE 1, SUMMIT HILL, PA 18250",DEA,NTBD2018,40.8234962,-75.871868
1294,SOUTHSIDE PHARMACY,NY,14701,"http://maps.google.com/maps?q=766 FOOTE AVE.,+JAMESTOWN,+NY+14701&hl=en","766 FOOTE AVE., JAMESTOWN, NY 14701",DEA,NTBD2018,42.079808,-79.2279091
1298,CONNEAUT POLICE DEPARTMENT,OH,44030,"http://maps.google.com/maps?q=294 MAIN ST,+CONNEAUT,+OH+44030&hl=en","294 MAIN ST, CONNEAUT, OH 44030",DEA,NTBD2018,41.943076,-80.55641
1300,EVANS MUNICIPAL CENTER,NY,14006,"http://maps.google.com/maps?q=8787 ERIE RD. RT. #5,+ANGOLA,+NY+14006&hl=en","8787 ERIE RD. RT. #5, ANGOLA, NY 14006",DEA,NTBD2018,42.6464481,-79.041817
1307,TRIPOINT MEDICAL CENTER,OH,44077,"http://maps.google.com/maps?q=7590 AUBURN ROAD,+PAINESVILLE,+OH+44077&hl=en","7590 AUBURN ROAD, PAINESVILLE, OH 44077",DEA,NTBD2018,41.6627956,-81.2465525
1310,MILTON TOWNSHIP POLICE DEPARTMENT,OH,44429,"http://maps.google.com/maps?q=15992 MILTON AVE.,+LAKE MILTON,+OH+44429&hl=en","15992 MILTON AVE., LAKE MILTON, OH 44429",DEA,NTBD2018,41.0996898,-80.9557397
1314,MT. ST. MARY'S HOSPITAL,NY,14092,"http://maps.google.com/maps?q=5300 MILITARY ROAD,+LEWISTON,+NY+14092&hl=en","5300 MILITARY ROAD, LEWISTON, NY 14092",DEA,NTBD2018,43.1541101,-79.0326191
1321,HAMOT WOMEN'S HOSPITAL,PA,16550,"http://maps.google.com/maps?q=104 2ND STREET,+ERIE,+PA+16550&hl=en","104 2ND STREET, ERIE, PA 16550",DEA,NTBD2018,42.1342,-80.086349
1334,NORTH PARK STATION,PA,15101,"http://maps.google.com/maps?q=700 WEST RIDGE DRIVE,+ALLISON PARK,+PA+15101&hl=en","700 WEST RIDGE DRIVE, ALLISON PARK, PA 15101",DEA,NTBD2018,40.5887097,-80.0098796
1335,THE OLD FIRST MERIT BUILDING,OH,44203,"http://maps.google.com/maps?q=480 WEST TUSCAWARAS,+BARBERTON,+OH+44203&hl=en","480 WEST TUSCAWARAS, BARBERTON, OH 44203",DEA,NTBD2018,41.0125032,-81.6073002
1362,WILLOWICK POLICE DEPARTMENT,OH,44095,"http://maps.google.com/maps?q=30435,+WILLOWICK,+OH+44095&hl=en","30435LAKESHORE BLVD., WILLOWICK, OH 44095",DEA,NTBD2018,41.6394933,-81.4748192
1363,SOUTH PARK STATION,PA,15129,"http://maps.google.com/maps?q=1801 BROWNSVILLE ROAD,+SOUTH PARK,+PA+15129&hl=en","1801 BROWNSVILLE ROAD, SOUTH PARK, PA 15129",DEA,NTBD2018,40.3047534,-79.9960625
1365,THOMPSONS PHARMACY,PA,16601,"http://maps.google.com/maps?q=600 E CHESTNUT AVE,+ALTOONA,+PA+16601&hl=en","600 E CHESTNUT AVE, ALTOONA, PA 16601",DEA,NTBD2018,40.5317403,-78.3878667
1379,CENTERVILLE BORO,PA,15417,"http://maps.google.com/maps?q=100 E END ST,+BROWNSVILLE,+PA+15417&hl=en","100 E END ST, BROWNSVILLE, PA 15417",DEA,NTBD2018,40.0293558,-79.9179362
1386,BAYER SCHOOL,PA,15282,"http://maps.google.com/maps?q=MCNAULTY DR,+PITTSBURGH,+PA+15282&hl=en","MCNAULTY DR, PITTSBURGH, PA 15282",DEA,NTBD2018,40.4367571,-79.9926433
1395,WALGREENS,PA,15106,"http://maps.google.com/maps?q=2055 WASHINGTON PIKE,+CARNEGIE,+PA+15106&hl=en","2055 WASHINGTON PIKE, CARNEGIE, PA 15106",DEA,NTBD2018,40.3880593,-80.0913162
1401,MONONGAH PD,WV,26554,"http://maps.google.com/maps?q=430 BRIDGE ST,+FAIRMONT,+WV+26554&hl=en","430 BRIDGE ST, FAIRMONT, WV 26554",DEA,NTBD2018,39.4603464,-80.213761
1402,KROGER @ SUNCREST TOWN CNTR,WV,26506,"http://maps.google.com/maps?q=500 SUNCREST TOWN CENTER DR,+MORGANTOWN,+WV+26506&hl=en","500 SUNCREST TOWN CENTER DR, MORGANTOWN, WV 26506",DEA,NTBD2018,39.650854,-79.9414281
1404,PIERPONT LANDING PHARMACY,WV,26508,"http://maps.google.com/maps?q=7000 MID ATLANTIC RD,+MORGANTOWN,+WV+26508&hl=en","7000 MID ATLANTIC RD, MORGANTOWN, WV 26508",DEA,NTBD2018,39.6474341,-79.8908876
1407,KROGER,WV,26505,"http://maps.google.com/maps?q=350 PATTERSON DRIVE,+MORGANTOWN,+WV+26505&hl=en","350 PATTERSON DRIVE, MORGANTOWN, WV 26505",DEA,NTBD2018,39.6503519,-79.9682217
1411,NORTH HUNTINGDON TWP. TOWNHOUSE NHT MUNICIPAL BUILDING - POLICE DEPT.,PA,15642,"http://maps.google.com/maps?q=11279 CENTER HIGHWAY,+NORTH HUNTINGDON,+PA+15642&hl=en","11279 CENTER HIGHWAY, NORTH HUNTINGDON, PA 15642",DEA,NTBD2018,40.3298328,-79.7315913
1432,BRUCETON PHARMACY,WV,26525,"http://maps.google.com/maps?q=198 MORGANTOWN ST,+BRUCETON MILLS,+WV+26525&hl=en","198 MORGANTOWN ST, BRUCETON MILLS, WV 26525",DEA,NTBD2018,39.658853,-79.6391319
1433,TERRA ALTA TOWN HALL,WV,26764,"http://maps.google.com/maps?q=701-A EAST STATE AVENUE,+TERRA ALTA,+WV+26764&hl=en","701-A EAST STATE AVENUE, TERRA ALTA, WV 26764",DEA,NTBD2018,39.443853,-79.54008
1434,THE MALL AT ROBINSON PARKING LOT NEAR DICK'S & GOLDEN CORRAL,PA,15205,"http://maps.google.com/maps?q=1000 ROBINSON CENTRE DRIVE,+PITTSBURGH,+PA+15205&hl=en","1000 ROBINSON CENTRE DRIVE, PITTSBURGH, PA 15205",DEA,NTBD2018,40.4528861,-80.1576921
1440,WALMART,WV,26354,"http://maps.google.com/maps?q=1 WALMART LANE,+GRAFTON,+WV+26354&hl=en","1 WALMART LANE, GRAFTON, WV 26354",DEA,NTBD2018,39.3585627,-79.9963346
1442,UNION HOSPITAL SOUTH ENTRANCE,OH,44622,"http://maps.google.com/maps?q=659 BOULEVARD,+DOVER,+OH+44622&hl=en","659 BOULEVARD, DOVER, OH 44622",DEA,NTBD2018,40.5148163,-81.4555357
1461,THE HUNDRED CITY BUILDING,WV,26575,"http://maps.google.com/maps?q=58 FOUR SEASONS DRIVE,+HUNDRED,+WV+26575&hl=en","58 FOUR SEASONS DRIVE, HUNDRED, WV 26575",DEA,NTBD2018,39.6789648,-80.4566735
1463,MARTELLA'S PHARMACY,PA,15963,"http://maps.google.com/maps?q=901 CORAHAM AVE,+WINDBER,+PA+15963&hl=en","901 CORAHAM AVE, WINDBER, PA 15963",DEA,NTBD2018,40.2394006,-78.8355657
1467,SHAWNEE STATE PARK: PAVILLION #2,PA,15559,"http://maps.google.com/maps?q=132 STATE PARK ROAD,+SCHELLSBURG,+PA+15559&hl=en","132 STATE PARK ROAD, SCHELLSBURG, PA 15559",DEA,NTBD2018,40.024635,-78.6387074
1468,DODDRIDGE CTY SD,WV,26456,"http://maps.google.com/maps?q=89 COURT ST,+WEST UNION,+WV+26456&hl=en","89 COURT ST, WEST UNION, WV 26456",DEA,NTBD2018,39.2936803,-80.7742168
1471,SISTERVILLE PD,WV,26175,"http://maps.google.com/maps?q=200 DIAMOND ST,+SISTERSVILLE,+WV+26175&hl=en","200 DIAMOND ST, SISTERSVILLE, WV 26175",DEA,NTBD2018,39.5649217,-80.9966216
1472,BUCKEYE HILLS AREA AGENCY ON AGING PARKING LOT,OH,45773,"http://maps.google.com/maps?q=1400 NEWPORT PIKE,+RENO,+OH+45773&hl=en","1400 NEWPORT PIKE, RENO, OH 45773",DEA,NTBD2018,39.3744141,-81.3969924
1474,193 SPECIAL OPERATIONS WING MILITARY MEMBERS ONLY !!! NOT A PUBLIC DROP OFF SITE,PA,17112,"https://www.google.com/maps/place/193rd+Special+Operations+Wing+Association/@40.1927912,-76.747622,17z/data=!3m1!4b1!4m5!3m4!1s0x89c895f78bd262bd:0xca9d6413ca93e725!8m2!3d40.1927912!4d-76.7454333?hl=en","CONSTELLATION COURT** FOR MILITARY ONLY***, HARRISBURG, PA 17112",DEA,NTBD2018,40.1927912,-76.747622
1477,BIGLERVILLE FIRE DEPARTMENT,PA,17307,"http://maps.google.com/maps?q=111 SOUTH MAIN STREET,+BIGLERVILLE,+PA+17307&hl=en","111 SOUTH MAIN STREET, BIGLERVILLE, PA 17307",DEA,NTBD2018,39.9278055,-77.2486875
1487,PENN STATE HERSHEY MEDICAL CENTER ACADEMIC SUPPORT BUILDING,PA,17033,"http://maps.google.com/maps?q=90 HOPE DR.,+HERSHEY,+PA+17033&hl=en","90 HOPE DR., HERSHEY, PA 17033",DEA,NTBD2018,40.2656282,-76.6673766
1492,SULLY DISTRICT POLICE STATION FRONT PARKING LOT -OPERATING 10 AM TO 2 PM-,VA,20151,"http://maps.google.com/maps?q=4900 STONECROFT BOULEVARD,+CHANTILLY,+VA+20151&hl=en","4900 STONECROFT BOULEVARD, CHANTILLY, VA 20151",DEA,NTBD2018,38.8712288,-77.4516729
1493,COMMISSARY BUILDING 1510 POC DET. LESTER MUMMERT,MD,21702,"http://maps.google.com/maps?q=BUILDING # 1510,+FORT DETRICK,+MD+21702&hl=en","BUILDING # 1510, FORT DETRICK, MD 21702",DEA,NTBD2018,37.5292712,-95.6216764
1494,DIRECTORATE OF EMERGENCY SERVICES POC DET. LESTER MUMMERT,MD,21702,"http://maps.google.com/maps?q=BUILDING # 1419,+FORT DETRICK,+MD+21702&hl=en","BUILDING # 1419, FORT DETRICK, MD 21702",DEA,NTBD2018,37.5292712,-95.6216764
1495,FOREST GLENN ANNEX,MD,21702,"http://maps.google.com/maps?q=FOREST GLENN ANNEX,+FREDERICK,+MD+21702&hl=en","FOREST GLENN ANNEX, FREDERICK, MD 21702",DEA,NTBD2018,39.0059681,-77.0527078
1498,TRINITY SCHOOL,MD,21703,"http://maps.google.com/maps?q=6040 NEW DESIGN ROAD,+FREDERICK,+MD+21703&hl=en","6040 NEW DESIGN ROAD, FREDERICK, MD 21703",DEA,NTBD2018,39.3995665,-77.4149358
1500,GEORGE MASON UNIVERSITY POLICE STATION,VA,22030,"http://maps.google.com/maps?q=4393 UNIVERSITY DRIVE,+FAIRFAX,+VA+22030&hl=en","4393 UNIVERSITY DRIVE, FAIRFAX, VA 22030",DEA,NTBD2018,38.8353678,-77.3058323
1506,CHARLES TOWN WALMART,WV,25414,"http://maps.google.com/maps?q=96 PATRICK HENRY WAY,+CHARLES TOWN,+WV+25414&hl=en","96 PATRICK HENRY WAY, CHARLES TOWN, WV 25414",DEA,NTBD2018,39.3003589,-77.8276153
1507,JEFFERSON COUNTY SHERIFF,WV,25430,"http://maps.google.com/maps?q=102 INDUSTRIAL BOULEVARD,+KEARNEYSVILLE,+WV+25430&hl=en","102 INDUSTRIAL BOULEVARD, KEARNEYSVILLE, WV 25430",DEA,NTBD2018,39.3477539,-77.8781285
1510,DULLES SOUTH PUBLIC SAFETY CENTER FRONT LOBBY AREA,VA,20152,"http://maps.google.com/maps?q=25216 LOUDOUN PARKWAY,+CHANTILLY,+VA+20152&hl=en","25216 LOUDOUN PARKWAY, CHANTILLY, VA 20152",DEA,NTBD2018,38.9197781,-77.5170643
1515,NOVANT HEALTH - PRINCE WILLIAM MEDICAL CENTER ENTRANCE TO WOMEN'S CENTER - OB/GYN,VA,20110,"http://maps.google.com/maps?q=8700 SUDLEY ROAD,+MANASSAS,+VA+20110&hl=en","8700 SUDLEY ROAD, MANASSAS, VA 20110",DEA,NTBD2018,38.7671914,-77.4872257
1522,GIANT PHARMACY,PA,17057,"http://maps.google.com/maps?q=450 EAST MAINT STREET,+MIDDLETOWN,+PA+17057&hl=en","450 EAST MAINT STREET, MIDDLETOWN, PA 17057",DEA,NTBD2018,40.1994212,-76.7222886
1533,NOVANT HEALTH HAYMARKET MEDICAL CENTER FRONT PARKING LOT,VA,20169,"http://maps.google.com/maps?q=15225 HEATHCOTE BLVD,+HAYMARKET,+VA+20169&hl=en","15225 HEATHCOTE BLVD, HAYMARKET, VA 20169",DEA,NTBD2018,38.8207582,-77.6424818
1536,ROCKVILLE CITY POLICE DEPARTMENT,MD,20850,"https://www.google.com/maps/place/2+W+Montgomery+Ave,+Rockville,+MD+20850/@39.0839356,-77.1554235,17z/data=!3m1!4b1!4m5!3m4!1s0x89b7cd74b14e6d0b:0xa06a371cbd7fa780!8m2!3d39.0839356!4d-77.1532348","#2 W. MONTGOMERY AVENUE, ROCKVILLE, MD 20850",DEA,NTBD2018,39.0839356,-77.1554235
1541,MORGAN COUNTY HEALTH DEPARTMENT POC: BILL KEARNS,WV,25411,"http://maps.google.com/maps?q=137 WAR MEMORIAL DR.,+BERKELEY SPRINGS,+WV+25411&hl=en","137 WAR MEMORIAL DR., BERKELEY SPRINGS, WV 25411",DEA,NTBD2018,39.6255306,-78.2183121
1547,WEST VIRGINIA STATE POLICE SGT J.R FLETCHER/3048223561,WV,26757,"http://maps.google.com/maps?q=525 DEPOT STREET,+ROMNEY,+WV+26757&hl=en","525 DEPOT STREET, ROMNEY, WV 26757",DEA,NTBD2018,39.3497186,-78.7587344
1548,WVSP-CHARLES TOWN SGT J.S. CHUMLEY/304-725-9779,WV,25430,"http://maps.google.com/maps?q=409 INDUSTRIAL BLVD.,+KEARNEYSVILLE,+WV+25430&hl=en","409 INDUSTRIAL BLVD., KEARNEYSVILLE, WV 25430",DEA,NTBD2018,39.349376,-77.873938
1549,WVSP-KEYSER SGT. S.B. HUFFMAN/3047881101,WV,26726,"https://www.google.com/maps/place/Fort+Ashby,+WV+26719/@39.5097855,-78.7894822,15z/data=!4m5!3m4!1s0x89ca83a3fcdd807f:0xdf2d7a8781dcfbc!8m2!3d39.5031465!4d-78.7686297?hl=en","730 FORT ASHBY RDRT 1, BOX 172D, KEYSER, WV 26726",DEA,NTBD2018,39.5097855,-78.7894822
1555,PINE GROVE POLICE DEPARTMENT,PA,17963,"http://maps.google.com/maps?q=ONE SNYDER DRIVE,+PINE GROVE,+PA+17963&hl=en","ONE SNYDER DRIVE, PINE GROVE, PA 17963",DEA,NTBD2018,40.5492356,-76.3847531
1583,NORTH OLMSTED POLICE DEPARTMENT,OH,44070,"http://maps.google.com/maps?q=27243 LORAIN ROAD,+NORTH OLMSTED,+OH+44070&hl=en","27243 LORAIN ROAD, NORTH OLMSTED, OH 44070",DEA,NTBD2018,41.4147009,-81.9238975
1589,ALEXANDRIA FIRE STATION 210,VA,22304,"http://maps.google.com/maps?q=5525 EISENHOWER AVE,+ALEXANDRIA,+VA+22304&hl=en","5525 EISENHOWER AVE, ALEXANDRIA, VA 22304",DEA,NTBD2018,38.8011454,-77.1290442
1593,HEADQUARTERS,MD,21108,"http://maps.google.com/maps?q=8495 VETERAN'S HIGHWAY,+MILLERSVILLE,+MD+21108&hl=en","8495 VETERAN'S HIGHWAY, MILLERSVILLE, MD 21108",DEA,NTBD2018,39.0993048,-76.6255012
1613,PRECINCT 8 PARKVILLE,MD,21234,"http://maps.google.com/maps?q=8532 OLD HARFORD RD.,+PARKVILLE,+MD+21234&hl=en","8532 OLD HARFORD RD., PARKVILLE, MD 21234",DEA,NTBD2018,39.3899205,-76.544222
1616,DEA HEADQUARTERS,VA,22202,"http://maps.google.com/maps?q=700 ARMY NAVY DRIVE,+ARLINGTON,+VA+22202&hl=en","700 ARMY NAVY DRIVE, ARLINGTON, VA 22202",DEA,NTBD2018,38.8646417,-77.0581199
1651,MADISON COUNTY SHERIFF'S OFFICE,VA,22727,"http://maps.google.com/maps?q=115 CHURCH ST,+MADISON,+VA+22727&hl=en","115 CHURCH ST, MADISON, VA 22727",DEA,NTBD2018,38.3804325,-78.2573413
1655,SOUTHERN DISTRICT,MD,21037,"http://maps.google.com/maps?q=35 STEPNEY'S LANE,+EDGEWATER,+MD+21037&hl=en","35 STEPNEY'S LANE, EDGEWATER, MD 21037",DEA,NTBD2018,38.9294815,-76.5583123
1656,BOWIE POLICE STATION,MD,20716,"http://maps.google.com/maps?q=15901 EXCALIBUR ROAD,+BOWIE,+MD+20716&hl=en","15901 EXCALIBUR ROAD, BOWIE, MD 20716",DEA,NTBD2018,38.9427155,-76.7299546
1661,"CENTRAL COLLECTION SITE DISTRICT III, PGPD",MD,20785,"http://maps.google.com/maps?q=7600 BARLOWE ROAD,+PALMER PARK,+MD+20785&hl=en","7600 BARLOWE ROAD, PALMER PARK, MD 20785",DEA,NTBD2018,38.91818,-76.8754291
1717,NEWARK POLICE DEPARTMENT,DE,19711,"http://maps.google.com/maps?q=220 SOUTH MAIN STREET,+NEWARK,+DE+19711&hl=en","220 SOUTH MAIN STREET, NEWARK, DE 19711",DEA,NTBD2018,39.6776258,-75.7631283
1719,NORTHAMPTON COUNTY SHERIFF'S OFFICE FRONT LOBBY,VA,23347,"http://maps.google.com/maps?q=5211 THE HORNES,+EASTVILLE,+VA+23347&hl=en","5211 THE HORNES, EASTVILLE, VA 23347",DEA,NTBD2018,37.3496388,-75.9360772
1720,NORTHUMBERLAND COUNTY SHERIFF'S OFFICE,VA,22473,"http://maps.google.com/maps?q=195 JUDICIAL PLACE,+HEATHSVILLE,+VA+22473&hl=en","195 JUDICIAL PLACE, HEATHSVILLE, VA 22473",DEA,NTBD2018,37.9155908,-76.473028
1721,NOVA COMMUNITY COLLEGE WOODBRIDGE CAMPUS,VA,22191,"http://maps.google.com/maps?q=2645 COLLEGE DR.,+WOODBRIDGE,+VA+22191&hl=en","2645 COLLEGE DR.WRC BUILDING, WOODBRIDGE, VA 22191",DEA,NTBD2018,38.6217323,-77.2914638
1729,ST. MARY'S COUNTY SHERIFF'S OFFICE HQ,MD,20650,"http://maps.google.com/maps?q=23150 LEONARD HALL DRIVE,+LEONARDTOWN,+MD+20650&hl=en","23150 LEONARD HALL DRIVE, LEONARDTOWN, MD 20650",DEA,NTBD2018,38.3045168,-76.62915
1739,ASHLAND POLICE DEPARTMENT VISITOR PARKING LOT,VA,23005,"http://maps.google.com/maps?q=601 ENGLAND STREET,+ASHLAND,+VA+23005&hl=en","601 ENGLAND STREET, ASHLAND, VA 23005",DEA,NTBD2018,37.7582988,-77.4735583
1746,WEST CREEK EMERGENCY CENTER,VA,23238,"http://maps.google.com/maps?q=12720 TUCKAHOE CREEK PKWY,+HENRICO,+VA+23238&hl=en","12720 TUCKAHOE CREEK PKWY, HENRICO, VA 23238",DEA,NTBD2018,37.6260144,-77.6606122
1752,LOUISA COUNTY SHERIFF'S OFFICE,VA,23093,"http://maps.google.com/maps?q=1 WOOLFOLK AVE,+LOUISA,+VA+23093&hl=en","1 WOOLFOLK AVE, LOUISA, VA 23093",DEA,NTBD2018,38.0221377,-78.0021904
1766,CHESAPEAKE POLICE 2ND PRECINCT,VA,23324,"http://maps.google.com/maps?q=1209 20TH STREET,+CHESAPEAKE,+VA+23324&hl=en","1209 20TH STREET, CHESAPEAKE, VA 23324",DEA,NTBD2018,36.8217607,-76.2734277
1773,NICK'S RESTAURANT SIDE PARKING LOT,VA,23156,"http://maps.google.com/maps?q=3483 LEWIS B. PULLER HWY,+SHACKLEFORDS,+VA+23156&hl=en","3483 LEWIS B. PULLER HWY, SHACKLEFORDS, VA 23156",DEA,NTBD2018,37.5459786,-76.7164375
1774,PUMONKEY REGIONAL LIBRARY FRONT PARKING LOT,VA,23148,"http://maps.google.com/maps?q=396 NEWTOWN ROAD,+SAINT STEPHENS CHURCH,+VA+23148&hl=en","396 NEWTOWN ROAD, SAINT STEPHENS CHURCH, VA 23148",DEA,NTBD2018,37.8077517,-77.0540683
1790,SURRY COUNTY CIRCUIT COURT HOUSE PARKING LOT,VA,23883,"http://maps.google.com/maps?q=28 COLONIAL TRAIL EAST,+SURRY,+VA+23883&hl=en","28 COLONIAL TRAIL EAST, SURRY, VA 23883",DEA,NTBD2018,37.1376778,-76.8346994
1792,WILLIAMSBURG FIRE DEPARTMENT,VA,23185,"http://maps.google.com/maps?q=WILLIAMSBURG FIRE DEPARTMENT,+WILLIAMSBURG,+VA+23185&hl=en","WILLIAMSBURG FIRE DEPARTMENT440 N BOUNDARY STREET, WILLIAMSBURG, VA 23185",DEA,NTBD2018,37.275854,-76.708435
1794,CHESAPEAKE POLICE 3RD PRECINCT,VA,23323,"http://maps.google.com/maps?q=949 N. GEORGE WASHINGTON HIGHWAY,+CHESAPEAKE,+VA+23323&hl=en","949 N. GEORGE WASHINGTON HIGHWAY, CHESAPEAKE, VA 23323",DEA,NTBD2018,36.7750604,-76.3399677
1803,RITE AID PHARMACY FRONT SIDEWALK BY STORE ENTRANCE,VA,23002,"http://maps.google.com/maps?q=15105 PATRICK HENRY HWY,+AMELIA,+VA+23002&hl=en","15105 PATRICK HENRY HWY, AMELIA, VA 23002",DEA,NTBD2018,37.3649324,-77.9370902
1821,MARKET STREET PHARMACY PARKING LOT,VA,24127,"http://maps.google.com/maps?q=317 MARKET ST,+NEW CASTLE,+VA+24127&hl=en","317 MARKET ST, NEW CASTLE, VA 24127",DEA,NTBD2018,37.5037476,-80.1104197
1822,CENTRA MEDICAL GROUP DANVILLE PARKING LOT - WEST END OF THE BUILDING,VA,24541,"http://maps.google.com/maps?q=414 PARK AVE,+DANVILLE,+VA+24541&hl=en","414 PARK AVE, DANVILLE, VA 24541",DEA,NTBD2018,36.584142,-79.431691
1825,FLOYD COUNTY SHERIFF'S OFFICE MAIN ENTRANCE,VA,24091,"http://maps.google.com/maps?q=100 MAIN STREET,+FLOYD,+VA+24091&hl=en","100 MAIN STREET, FLOYD, VA 24091",DEA,NTBD2018,36.911687,-80.3198744
1834,FOOD LION PARKING LOT,VA,24557,"http://maps.google.com/maps?q=100 VADEN STREET,+GRETNA,+VA+24557&hl=en","100 VADEN STREET, GRETNA, VA 24557",DEA,NTBD2018,36.9489875,-79.3633616
1837,POCAHONTAS COUNTY SHERIFF'S DEPT,WV,24954,"http://maps.google.com/maps?q=900 JAIL LANE,+MARLINTON,+WV+24954&hl=en","900 JAIL LANE, MARLINTON, WV 24954",DEA,NTBD2018,38.2181187,-80.0886129
1840,BONNIE HURLBURT STUDENT CENTER,VA,24141,"http://maps.google.com/maps?q=700 CLEMENT ST.,+RADFORD,+VA+24141&hl=en","700 CLEMENT ST., RADFORD, VA 24141",DEA,NTBD2018,37.1364175,-80.5474269
1845,KROGER AT VALLEY GATEWAY NEAR FRONT ENTRANCE,VA,24012,"http://maps.google.com/maps?q=3970 VALLEY GATEWAY BLVD,+ROANOKE,+VA+24012&hl=en","3970 VALLEY GATEWAY BLVD, ROANOKE, VA 24012",DEA,NTBD2018,37.3130902,-79.8803238
1847,ROANOKE COUNTY FIRE STATION #1 PARKING LOT,VA,24019,"http://maps.google.com/maps?q=150 HERSHBERGER ROAD,+ROANOKE,+VA+24019&hl=en","150 HERSHBERGER ROAD, ROANOKE, VA 24019",DEA,NTBD2018,37.322777,-79.939397
1849,DEPARTMENT OF VETERANS AFFAIRS ENTRANCE TO BUILDING 143,VA,24153,"http://maps.google.com/maps?q=1970 ROANOKE BOULEVARD,+SALEM,+VA+24153&hl=en","1970 ROANOKE BOULEVARD, SALEM, VA 24153",DEA,NTBD2018,37.2761016,-80.0236843
1858,WALGREENS,NC,27701,"http://maps.google.com/maps?q=1812 HOLLOWAY STREET,+DURHAM,+NC+27701&hl=en","1812 HOLLOWAY STREET, DURHAM, NC 27701",DEA,NTBD2018,35.99255,-78.8698057
1859,KROGER PARKING LOT,WV,25951,"http://maps.google.com/maps?q=308 STOKES DRIVE,+HINTON,+WV+25951&hl=en","308 STOKES DRIVE, HINTON, WV 25951",DEA,NTBD2018,37.6600096,-80.8911248
1860,NC STATE UNIVERSITY POLICE DEPARTMENT FRONT LOBBY,NC,27695,"http://maps.google.com/maps?q=2610 WOLF VILLAGE WAY,+RALEIGH,+NC+27695&hl=en","2610 WOLF VILLAGE WAYCAMPUS BOX 7220, RALEIGH, NC 27695",DEA,NTBD2018,39.5029459,-78.7687253
1868,WAL-MART,NC,28504,"http://maps.google.com/maps?q=4101 W. VERNON AVE.,+KINSTON,+NC+28504&hl=en","4101 W. VERNON AVE., KINSTON, NC 28504",DEA,NTBD2018,35.2648774,-77.6462744
1873,JOHN SLACK PARK SHERIFF W WHITE,WV,25165,"https://www.google.com/maps/place/John+Slack+Park,+Coal+River+Rd,+Racine,+WV+25165/@38.1386451,-81.6459542,18z/data=!3m1!4b1!4m8!1m2!2m1!1sJOHN+SLACK+PARK+SHERIFF+W+WHITE!3m4!1s0x884f24565a845b1f:0x864dd6dd424054bc!8m2!3d38.1387023!4d-81.6449472","SR#3 GENERAL DELIVERY, RACINE, WV 25165",DEA,NTBD2018,38.1386451,-81.6459542
1876,FOOD CITY PHARMACY VANSANT FOOD CITY,VA,24656,"http://maps.google.com/maps?q=18765 RIVERSIDE DRIVE,+VANSANT,+VA+24656&hl=en","18765 RIVERSIDE DRIVE, VANSANT, VA 24656",DEA,NTBD2018,37.2367133,-82.104197
1882,MOOSE DRUG COMPANY,NC,28124,"http://maps.google.com/maps?q=8374 FRANKLIN ST. W.,+MOUNT PLEASANT,+NC+28124&hl=en","8374 FRANKLIN ST. W., MOUNT PLEASANT, NC 28124",DEA,NTBD2018,35.3990287,-80.435976
1885,CARTER COUNTY DETENTION CENTER INSIDE LOBBY AREA. OPEN 24HRS PER DAY.,TN,37643,"http://maps.google.com/maps?q=900 3RD ST.,+ELIZABETHTON,+TN+37643&hl=en","900 3RD ST., ELIZABETHTON, TN 37643",DEA,NTBD2018,36.3477361,-82.2093065
1887,DRUG EMPORIUM,WV,25302,"http://maps.google.com/maps?q=1603 KANAWHA BLVDWEST,+CHARLESTON,+WV+25302&hl=en","1603 KANAWHA BLVDWEST, CHARLESTON, WV 25302",DEA,NTBD2018,38.3675923,-81.6672736
1899,KENNA VOLUNTEER FIRE DEPARTMENT,WV,25248,"http://maps.google.com/maps?q=RT 21 AT PLEASANT VALLEY ROAD,+KENNA,+WV+25248&hl=en","RT 21 AT PLEASANT VALLEY ROAD, KENNA, WV 25248",DEA,NTBD2018,38.4504852,-81.6667695
1900,BUTLER FIRE DEPARTMENT,TN,37640,"http://maps.google.com/maps?q=PIERCE TOWN ROAD,+BUTLER,+TN+37640&hl=en","PIERCE TOWN ROAD, BUTLER, TN 37640",DEA,NTBD2018,36.3534563,-82.0371142
1902,SHADY VALLEY FIRE DEPT.,TN,37688,"http://maps.google.com/maps?q=10114 US 421 N,+SHADY VALLEY,+TN+37688&hl=en","10114 US 421 N, SHADY VALLEY, TN 37688",DEA,NTBD2018,36.5223319,-81.9337247
1907,KANNAPOLIS YMCA,NC,28081,"http://maps.google.com/maps?q=101 YMCA DRIVE,+KANNAPOLIS,+NC+28081&hl=en","101 YMCA DRIVE, KANNAPOLIS, NC 28081",DEA,NTBD2018,35.5037086,-80.6349246
1910,WAL-MART SUPER CENTER FOUNTAIN PLACE MALL,WV,25601,"http://maps.google.com/maps?q=U.S.  119/WV 73,+LOGAN,+WV+25601&hl=en","U.S.  119/WV 73, LOGAN, WV 25601",DEA,NTBD2018,37.8254661,-81.9987585
1911,MATEWAN POLICE DEPARTMENT,WV,25678,"https://www.google.com/maps/place/Matewan+Police+Department/@37.6220489,-82.165378,17z/data=!3m1!4b1!4m5!3m4!1s0x884f86da8821bd29:0x5ce5719aa95a2f4!8m2!3d37.6220489!4d-82.1631893?hl=en","ROUTE 65 MCCOY ALLEY, MATEWAN, WV 25678",DEA,NTBD2018,37.6220489,-82.165378
1912,MAGIC MART,WV,24801,"http://maps.google.com/maps?q=COAL HERITAGE RD,+WELCH,+WV+24801&hl=en","COAL HERITAGE RD, WELCH, WV 24801",DEA,NTBD2018,37.4240428,-81.5825056
1916,OAK HILL PD,WV,25901,"http://maps.google.com/maps?q=691 VIRGINIA ST,+OAK HILL,+WV+25901&hl=en","691 VIRGINIA ST, OAK HILL, WV 25901",DEA,NTBD2018,37.97947,-81.1465798
1917,CRAB ORCHARD PHARMACY,WV,25827,"http://maps.google.com/maps?q=1299 ROBERT C. BYRD DRIVE,+CRAB ORCHARD,+WV+25827&hl=en","1299 ROBERT C. BYRD DRIVE, CRAB ORCHARD, WV 25827",DEA,NTBD2018,37.7398147,-81.2345651
1918,RICHLANDS POLICE DEPARTMENT FRONT LOBBY,VA,24641,"http://maps.google.com/maps?q=1851 CRANWELL DRIVE,+RICHLANDS,+VA+24641&hl=en","1851 CRANWELL DRIVE, RICHLANDS, VA 24641",DEA,NTBD2018,37.0955747,-81.8001436
1919,BLUE DEVIL DRUG,VA,24224,"http://maps.google.com/maps?q=19408 HWY 58,+CASTLEWOOD,+VA+24224&hl=en","19408 HWY 58, CASTLEWOOD, VA 24224",DEA,NTBD2018,36.8733129,-82.3003417
1921,NEW GARDEN PHARMACY,VA,24260,"http://maps.google.com/maps?q=5300 REDBUD HWY,+HONAKER,+VA+24260&hl=en","5300 REDBUD HWY, HONAKER, VA 24260",DEA,NTBD2018,37.016249,-81.9743371
1929,FOOD LION BLOWING ROCK,NC,28605,"http://maps.google.com/maps?q=7533 VALLEY BLVD,+BLOWING ROCK,+NC+28605&hl=en","7533 VALLEY BLVD, BLOWING ROCK, NC 28605",DEA,NTBD2018,36.1373202,-81.669681
1930,FOOD LION WATAUGA VILLAGE SHOPPING CENTER,NC,28607,"http://maps.google.com/maps?q=350 VILLAGE DRIVE,+BOONE,+NC+28607&hl=en","350 VILLAGE DRIVE, BOONE, NC 28607",DEA,NTBD2018,36.1948661,-81.6412412
1931,FOOD LOION HWY 421 SOUTH,NC,28607,"http://maps.google.com/maps?q=1864 OLD US 421 SOUTH,+BOONE,+NC+28607&hl=en","1864 OLD US 421 SOUTH, BOONE, NC 28607",DEA,NTBD2018,36.2262187,-81.6111283
1932,FOSCOE FIRE DEPT.,NC,28604,"http://maps.google.com/maps?q=9230 HWY 105 SOUTH,+BANNER ELK,+NC+28604&hl=en","9230 HWY 105 SOUTH, BANNER ELK, NC 28604",DEA,NTBD2018,36.1568127,-81.7764378
1936,WVSP-OAK HILL SGT. J.L. MILAM/3044692915,WV,25901,"http://maps.google.com/maps?q=3057 MAIN ST,+OAK HILL,+WV+25901&hl=en","3057 MAIN ST, OAK HILL, WV 25901",DEA,NTBD2018,37.99733,-81.132296
1939,FOOD CITY,VA,24283,"http://maps.google.com/maps?q=16410 WISE ST,+SAINT PAUL,+VA+24283&hl=en","16410 WISE ST, SAINT PAUL, VA 24283",DEA,NTBD2018,36.9047973,-82.3162436
1941,MAGIC MART,WV,24870,"https://www.google.com/maps/place/Magic+Mart/@37.6931418,-81.6539174,17z/data=!3m1!4b1!4m5!3m4!1s0x884fa9baaaaaaaab:0xa4f685e36ae180af!8m2!3d37.6931418!4d-81.6517287?hl=en","759 OCEANA SQUARE/RTE 971, OCEANA, WV 24870",DEA,NTBD2018,37.6391418,-81.6539174
1942,RITE AID,WV,25882,"http://maps.google.com/maps?q=401 MORAN AVE,+MULLENS,+WV+25882&hl=en","401 MORAN AVE, MULLENS, WV 25882",DEA,NTBD2018,37.5854408,-81.37938
1943,RITE AID,WV,24874,"http://maps.google.com/maps?q=448 APPALACHIAN HWY,+PINEVILLE,+WV+24874&hl=en","448 APPALACHIAN HWY, PINEVILLE, WV 24874",DEA,NTBD2018,37.5872786,-81.533045
1950,ASHEVILLE REGIONAL AIRPORT,NC,28732,"http://maps.google.com/maps?q=61 TERMINAL DRIVE,+FLETCHER,+NC+28732&hl=en","61 TERMINAL DRIVE, FLETCHER, NC 28732",DEA,NTBD2018,35.4347918,-82.537607
1951,CVS PHARMACY,NC,28711,"http://maps.google.com/maps?q=425 W. STATE STREET,+BLACK MOUNTAIN,+NC+28711&hl=en","425 W. STATE STREET, BLACK MOUNTAIN, NC 28711",DEA,NTBD2018,35.6134464,-82.3266641
1955,WALGREEN'S,NC,28803,"http://maps.google.com/maps?q=1835 HENDERSONVILLE RD,+ASHEVILLE,+NC+28803&hl=en","1835 HENDERSONVILLE RD, ASHEVILLE, NC 28803",DEA,NTBD2018,35.502641,-82.5243444
1957,WALGREEN'S,NC,28805,"http://maps.google.com/maps?q=91 S. TUNNEL RD,+ASHEVILLE,+NC+28805&hl=en","91 S. TUNNEL RD, ASHEVILLE, NC 28805",DEA,NTBD2018,35.5778019,-82.5209364
1958,CEREDO PD,WV,25507,"http://maps.google.com/maps?q=766 B STREET,+CEREDO,+WV+25507&hl=en","766 B STREET, CEREDO, WV 25507",DEA,NTBD2018,38.3975163,-82.5578678
1961,CVS PHARMACY,NC,28722,"http://maps.google.com/maps?q=333 W. MILLS STREET,+COLUMBUS,+NC+28722&hl=en","333 W. MILLS STREET, COLUMBUS, NC 28722",DEA,NTBD2018,35.2478581,-82.2034361
1962,FOOD CITY,TN,37725,"http://maps.google.com/maps?q=123 WEST HWY 25/70,+DANDRIDGE,+TN+37725&hl=en","123 WEST HWY 25/70, DANDRIDGE, TN 37725",DEA,NTBD2018,36.016677,-83.425661
1964,FOOD CITY NEAR THE FRONT ENTRANCE,VA,24228,"http://maps.google.com/maps?q=410 CHASE STREET,+CLINTWOOD,+VA+24228&hl=en","410 CHASE STREET, CLINTWOOD, VA 24228",DEA,NTBD2018,37.1498145,-82.4538654
1966,FAIRFIELD GLADE POLICE DEPT,TN,38558,"http://maps.google.com/maps?q=7258 PEAVINE RD,+CROSSVILLE,+TN+38558&hl=en","7258 PEAVINE RD, CROSSVILLE, TN 38558",DEA,NTBD2018,36.005929,-84.8849858
1968,GATLINBURG PD,TN,37738,"http://maps.google.com/maps?q=1230 E. PKWY,+GATLINBURG,+TN+37738&hl=en","1230 E. PKWY, GATLINBURG, TN 37738",DEA,NTBD2018,35.7257518,-83.4795704
1975,HAWKINS COUNTY SHERIFF'S OFFICE,TN,37857,"http://maps.google.com/maps?q=117 JUSTIC CENTER DR,+ROGERSVILLE,+TN+37857&hl=en","117 JUSTIC CENTER DR, ROGERSVILLE, TN 37857",DEA,NTBD2018,36.4200824,-82.9951054
1980,KENTUCKY STATE POLICE,KY,40831,"http://maps.google.com/maps?q=3319 SOUTH US 421,+HARLAN,+KY+40831&hl=en","3319 SOUTH US 421, HARLAN, KY 40831",DEA,NTBD2018,36.8148548,-83.3147427
1982,KENTUCKY STATE POLICE,KY,41701,"http://maps.google.com/maps?q=100 JUSTICE DRIVE,+HAZARD,+KY+41701&hl=en","100 JUSTICE DRIVE, HAZARD, KY 41701",DEA,NTBD2018,37.29815,-83.2165098
1983,KENTUCKY STATE POLICE,KY,41102,"http://maps.google.com/maps?q=5975 STATE ROUTE US 60,+ASHLAND,+KY+41102&hl=en","5975 STATE ROUTE US 60, ASHLAND, KY 41102",DEA,NTBD2018,38.4372128,-82.6904356
1986,KENTUCKY STATE POLICE POST 9 PIKEVILLE,KY,41501,"http://maps.google.com/maps?q=3499 N MAYO TRAIL,+PIKEVILLE,+KY+41501&hl=en","3499 N MAYO TRAIL, PIKEVILLE, KY 41501",DEA,NTBD2018,37.5163804,-82.5628152
1991,FOOD CITY STORE NEAR FRONT ENTRANCE,VA,24277,"http://maps.google.com/maps?q=205 RIVER BEND ROAD,+PENNINGTON GAP,+VA+24277&hl=en","205 RIVER BEND ROAD, PENNINGTON GAP, VA 24277",DEA,NTBD2018,36.7627541,-83.0151821
1995,WALGREENS,TN,37354,"http://maps.google.com/maps?q=4440 US 411,+MADISONVILLE,+TN+37354&hl=en","4440 US 411, MADISONVILLE, TN 37354",DEA,NTBD2018,35.5167341,-84.3597286
1997,CARL D. PERKINS COMMUNITY CENTER,KY,40351,"http://maps.google.com/maps?q=CRAYTON JACKSON LANE,+MOREHEAD,+KY+40351&hl=en","CRAYTON JACKSON LANE, MOREHEAD, KY 40351",DEA,NTBD2018,38.1811975,-83.4689512
2001,FOOD CITY EAST,TN,37821,"http://maps.google.com/maps?q=416 EASTERN PLAZA,+NEWPORT,+TN+37821&hl=en","416 EASTERN PLAZA, NEWPORT, TN 37821",DEA,NTBD2018,35.9669266,-83.1813682
2006,WALMART,KY,40361,"http://maps.google.com/maps?q=305 LETTON DRIVE,+PARIS,+KY+40361&hl=en","305 LETTON DRIVE, PARIS, KY 40361",DEA,NTBD2018,38.1970063,-84.27808
2008,PUTNAM COUNTY SHERIFF'S DEPARTMENT,WV,25213,"http://maps.google.com/maps?q=SHERIFF'S DEPARTMENT,+WINFIELD,+WV+25213&hl=en","SHERIFF'S DEPARTMENT3389 WINFIELD ROAD, WINFIELD, WV 25213",DEA,NTBD2018,38.5333053,-81.8917558
2010,KSP POST 8 MOREHEAD,KY,40351,"http://maps.google.com/maps?q=1595 FLEMINGSBURG ROAD,+MOREHEAD,+KY+40351&hl=en","1595 FLEMINGSBURG ROAD, MOREHEAD, KY 40351",DEA,NTBD2018,38.1865667,-83.4767118
2012,FOOD COUNTRY OUTSIDE NEAR MAIN ENTRANCE,VA,24244,"http://maps.google.com/maps?q=42158 US 58,+DUFFIELD,+VA+24244&hl=en","42158 US 58, DUFFIELD, VA 24244",DEA,NTBD2018,36.710032,-82.7969772
2018,SULLIVAN COUNTY SHERIFF'S OFFICE,TN,37617,"http://maps.google.com/maps?q=140 BLOUNTSVILLE BYPASS,+BLOUNTVILLE,+TN+37617&hl=en","140 BLOUNTSVILLE BYPASS, BLOUNTVILLE, TN 37617",DEA,NTBD2018,36.536178,-82.3220721
2024,FOOD CITY - WEBER CITY NEAR FRONT ENTRANCE,VA,24290,"http://maps.google.com/maps?q=FRANK B. SMITH LN,+WEBER CITY,+VA+24290&hl=en","FRANK B. SMITH LN, WEBER CITY, VA 24290",DEA,NTBD2018,36.628614,-82.551171
2025,WEST VIRGINIA STATE POLICE SGT B K WELLMAN/3045285555,WV,25705,"http://maps.google.com/maps?q=3339 US ROUTE 60 EAST,+HUNTINGTON,+WV+25705&hl=en","3339 US ROUTE 60 EAST, HUNTINGTON, WV 25705",DEA,NTBD2018,38.4103222,-82.3746619
2027,WEST VIRGINIA STATE POLICE SGT. C.H.FLOWERS/304-586-2000,WV,25213,"http://maps.google.com/maps?q=3389 WINFIELD ROAD,+WINFIELD,+WV+25213&hl=en","3389 WINFIELD ROAD, WINFIELD, WV 25213",DEA,NTBD2018,38.5350399,-81.8705259
2031,FOOD CITY NEAR FRONT ENTRANCE,VA,24293,"http://maps.google.com/maps?q=207 WOODLAND DRIVE,+WISE,+VA+24293&hl=en","207 WOODLAND DRIVE, WISE, VA 24293",DEA,NTBD2018,36.9760627,-82.5924489
2032,WALMART,TN,37303,"http://maps.google.com/maps?q=1815 DECATUR PIKE,+ATHENS,+TN+37303&hl=en","1815 DECATUR PIKE, ATHENS, TN 37303",DEA,NTBD2018,35.4524931,-84.6312344
2033,ADAIR COUNTY SHERIFF'S OFFICE TACO BELL (PICK UP IN PARKING LOT),KY,42728,"http://maps.google.com/maps?q=899 JAMES TOWN STREET,+COLUMBIA,+KY+42728&hl=en","899 JAMES TOWN STREET, COLUMBIA, KY 42728",DEA,NTBD2018,37.0927952,-85.303584
2043,"SPRING CITY, CITY HALL TENT LOCATED IN THE FRONT PARKING LOT",TN,37381,"http://maps.google.com/maps?q=229 FRONT STREET,+SPRING CITY,+TN+37381&hl=en","229 FRONT STREET, SPRING CITY, TN 37381",DEA,NTBD2018,35.6918299,-84.8623718
2044,RUSSELL COUNTY SHERIFF'S OFFICE,KY,42629,"http://maps.google.com/maps?q=410 MONUMENT SQUARE #109,+JAMESTOWN,+KY+42629&hl=en","410 MONUMENT SQUARE #109, JAMESTOWN, KY 42629",DEA,NTBD2018,43.4560156,-71.220611
2047,NEW HAVEN VOLUNTEER FIRE DEPT,WV,25265,"http://maps.google.com/maps?q=407 5TH STREET,+NEW HAVEN,+WV+25265&hl=en","407 5TH STREET, NEW HAVEN, WV 25265",DEA,NTBD2018,38.9867078,-81.9728399
2049,WAVERLY VFD,WV,26184,"http://maps.google.com/maps?q=15425 EMERSON AVE,+WAVERLY,+WV+26184&hl=en","15425 EMERSON AVE, WAVERLY, WV 26184",DEA,NTBD2018,39.3395511,-81.398308
2052,BROWN COUNTY SHERIFFS OFFICE PARKING LOT,OH,45121,"http://maps.google.com/maps?q=750 MOUNT ORAB PIKE,+GEORGETOWN,+OH+45121&hl=en","750 MOUNT ORAB PIKE, GEORGETOWN, OH 45121",DEA,NTBD2018,38.874702,-83.8996653
2057,VIOLET TOWNSHIP MAINTENANCE GARAGE,OH,43147,"http://maps.google.com/maps?q=490 N CENTER ST,+PICKERINGTON,+OH+43147&hl=en","490 N CENTER STCORNER OF N CENTER & STEMEN RD, PICKERINGTON, OH 43147",DEA,NTBD2018,33.4621469,-111.8310735
2076,PICKERINGTON POLICE DEPARTMENT,OH,43147,"http://maps.google.com/maps?q=1311 REFUGEE RD.,+PICKERINGTON,+OH+43147&hl=en","1311 REFUGEE RD., PICKERINGTON, OH 43147",DEA,NTBD2018,39.9097788,-82.7923032
2081,CORNER OF 2ND ST AND PUTNAM ST,OH,45750,"http://maps.google.com/maps?q=CORNER OF 2ND ST AND PUTNAM ST,+MARIETTA,+OH+45750&hl=en","CORNER OF 2ND ST AND PUTNAM ST, MARIETTA, OH 45750",DEA,NTBD2018,39.4153499,-81.4546766
2085,WHITE OAK PHARMACY PARKING LOT,OH,45712,"http://maps.google.com/maps?q=8465 STATE ROUTE 339,+BARLOW,+OH+45712&hl=en","8465 STATE ROUTE 339, BARLOW, OH 45712",DEA,NTBD2018,39.397123,-81.666881
2087,WILLIAMSTOWN PD,WV,26187,"http://maps.google.com/maps?q=100 WEST 5TH ST,+WILLIAMSTOWN,+WV+26187&hl=en","100 WEST 5TH ST, WILLIAMSTOWN, WV 26187",DEA,NTBD2018,39.4007706,-81.4494855
2096,CENTRAL JOINT FIRE DEPARTMENT,OH,45103,"http://maps.google.com/maps?q=2401 OLD SR 32,+BATAVIA,+OH+45103&hl=en","2401 OLD SR 32, BATAVIA, OH 45103",DEA,NTBD2018,39.0737655,-84.1399975
2100,HARRISON COUNTY SHERIFF'S OFFICE,KY,41031,"http://maps.google.com/maps?q=113 W. PIKE ST.,+CYNTHIANA,+KY+41031&hl=en","113 W. PIKE ST., CYNTHIANA, KY 41031",DEA,NTBD2018,38.3890393,-84.2990118
2118,HARRIS TEETER- STEELECROFT,NC,28278,"http://maps.google.com/maps?q=13000 S TRYON,+CHARLOTTE,+NC+28278&hl=en","13000 S TRYON, CHARLOTTE, NC 28278",DEA,NTBD2018,35.1032504,-80.9908197
2129,NOVANT HEALTH BRUNSWICK MEDICAL CENTER,NC,28422,"http://maps.google.com/maps?q=240 HOSPITAL DRIVE NE,+BOLIVIA,+NC+28422&hl=en","240 HOSPITAL DRIVE NE, BOLIVIA, NC 28422",DEA,NTBD2018,34.0312766,-78.2602512
2134,WEST FLORENCE HIGH SCHOOL,SC,29505,"http://maps.google.com/maps?q=221 BELTLINE DR.,+FLORENCE,+SC+29505&hl=en","221 BELTLINE DR., FLORENCE, SC 29505",DEA,NTBD2018,34.1945369,-79.825194
2136,FORT JACKSON MAIN POST EXCHANGE,SC,29207,"http://maps.google.com/maps?q=4110 MOSEBY STREET,+COLUMBIA,+SC+29207&hl=en","4110 MOSEBY STREET, COLUMBIA, SC 29207",DEA,NTBD2018,34.0225072,-80.9436517
2137,HOLLY RIDGE POLICE DEPARTMENT LT. EWAN S RICHARDS,NC,28445,"http://maps.google.com/maps?q=313,+HOLLY RIDGE,+NC+28445&hl=en","313SOUND ROAD, HOLLY RIDGE, NC 28445",DEA,NTBD2018,34.4950567,-77.5496046
2138,IRMO POLICE DEPARTMENT,SC,29063,"http://maps.google.com/maps?q=1230 COLUMBIA AVE.,+IRMO,+SC+29063&hl=en","1230 COLUMBIA AVE., IRMO, SC 29063",DEA,NTBD2018,34.0854886,-81.1799605
2155,CVS PHARMACY,NC,28460,"http://maps.google.com/maps?q=1309 NC HWY 210,+SNEADS FERRY,+NC+28460&hl=en","1309 NC HWY 210, SNEADS FERRY, NC 28460",DEA,NTBD2018,34.5256545,-77.4344699
2162,USC COLUMBIA CAMPUS,SC,29208,"http://maps.google.com/maps?q=CORNER GREENE AND BULL ST.,+COLUMBIA,+SC+29208&hl=en","CORNER GREENE AND BULL ST., COLUMBIA, SC 29208",DEA,NTBD2018,33.9972769,-81.0263024
2170,CLYBURN CENTER FOR PRIMARY CARE,SC,29801,"http://maps.google.com/maps?q=1000 CLYBURN PLACE,+AIKEN,+SC+29801&hl=en","1000 CLYBURN PLACE, AIKEN, SC 29801",DEA,NTBD2018,33.5734196,-81.7121368
2173,PINE ST. AND GOLD ST.,SC,29835,"http://maps.google.com/maps?q=100 N. PINE ST.,+MC CORMICK,+SC+29835&hl=en","100 N. PINE ST., MC CORMICK, SC 29835",DEA,NTBD2018,33.9136008,-82.2940126
2175,OCSO SUBSTATION,SC,29678,"http://maps.google.com/maps?q=302 MEMORIAL DRIVE,+SENECA,+SC+29678&hl=en","302 MEMORIAL DRIVE, SENECA, SC 29678",DEA,NTBD2018,34.6942016,-82.9892468
2177,BAPTIST EASLEY HOSPITAL,SC,29640,"http://maps.google.com/maps?q=200 FLEET DR,+EASLEY,+SC+29640&hl=en","200 FLEET DR, EASLEY, SC 29640",DEA,NTBD2018,34.8405496,-82.606976
2179,CLEMSON FREE CLINIC,SC,29631,"http://maps.google.com/maps?q=1200 CLEMSON,+CLEMSON,+SC+29631&hl=en","1200 CLEMSON, CLEMSON, SC 29631",DEA,NTBD2018,34.690034,-82.8298961
2182,PIGGLY WIGGLY,SC,29510,"http://maps.google.com/maps?q=15 W. ASHLAND ST.,+ANDREWS,+SC+29510&hl=en","15 W. ASHLAND ST., ANDREWS, SC 29510",DEA,NTBD2018,33.4548866,-79.5609586
2186,FRANKLIN COUNTY SHERIFF CID,GA,30521,"https://www.google.com/maps/place/Franklin+County+Detention+Center/@34.3690191,-83.2443742,17z/data=!3m1!4b1!4m5!3m4!1s0x88589f7815f0ea0d:0x3c7a43441d9ae795!8m2!3d34.3690191!4d-83.2421855?hl=en","159 A. T. MAULDIN DRIVE, CARNESVILLE, GA 30521",DEA,NTBD2018,34.3690191,-83.2443742
2193,SANTEE COOPER,SC,29461,"http://maps.google.com/maps?q=1 RIVERWOOD DRIVE,+MONCKS CORNER,+SC+29461&hl=en","1 RIVERWOOD DRIVE, MONCKS CORNER, SC 29461",DEA,NTBD2018,33.199181,-79.9805852
2195,VINCENT DRUG STORE,SC,29455,"http://maps.google.com/maps?q=110 PLANTED ROW LANE,+JOHNS ISLAND,+SC+29455&hl=en","110 PLANTED ROW LANE, JOHNS ISLAND, SC 29455",DEA,NTBD2018,32.6075017,-80.1471506
2201,WALMART,SC,29464,"http://maps.google.com/maps?q=1481 N. HIGHWAY 17,+MOUNT PLEASANT,+SC+29464&hl=en","1481 N. HIGHWAY 17, MOUNT PLEASANT, SC 29464",DEA,NTBD2018,32.8140601,-79.8456052
2205,WALGREENS,GA,30101,"http://maps.google.com/maps?q=6090 LAKE ACWORTH DRIVE,+ACWORTH,+GA+30101&hl=en","6090 LAKE ACWORTH DRIVE, ACWORTH, GA 30101",DEA,NTBD2018,34.0761987,-84.6548193
2208,ALPHARETTA FIRE STATION 83,GA,30009,"http://maps.google.com/maps?q=9600 WEST SIDE PKWY,+ALPHARETTA,+GA+30009&hl=en","9600 WEST SIDE PKWY, ALPHARETTA, GA 30009",DEA,NTBD2018,34.0503334,-84.3043566
2215,AVONDALE ESTATES PD,GA,30002,"http://maps.google.com/maps?q=21 N. AVONDALE PLAZA,+AVONDALE ESTATES,+GA+30002&hl=en","21 N. AVONDALE PLAZA, AVONDALE ESTATES, GA 30002",DEA,NTBD2018,33.7767372,-84.2662699
2216,BCSO CID ENTRANCE,TN,37311,"http://maps.google.com/maps?q=2290 BLYTHE AVE SE,+CLEVELAND,+TN+37311&hl=en","2290 BLYTHE AVE SE, CLEVELAND, TN 37311",DEA,NTBD2018,35.1333764,-84.8833379
2219,PRECINCT 1,GA,30060,"http://maps.google.com/maps?q=2380 COBB PKWY,+MARIETTA,+GA+30060&hl=en","2380 COBB PKWY, MARIETTA, GA 30060",DEA,NTBD2018,33.9013101,-84.482979
2221,CLIFTON SPRINGS HEALTH CENTER,GA,30058,"http://maps.google.com/maps?q=3110 CLIFTON SPRINGS ROAD,+LITHONIA,+GA+30058&hl=en","3110 CLIFTON SPRINGS ROAD, LITHONIA, GA 30058",DEA,NTBD2018,33.6932368,-84.2624345
2224,EAST DEKALB HEALTH CENTER,GA,30058,"http://maps.google.com/maps?q=2277 S. STONE MOUNTAIN-LITHONIA ROAD,+LITHONIA,+GA+30058&hl=en","2277 S. STONE MOUNTAIN-LITHONIA ROAD, LITHONIA, GA 30058",DEA,NTBD2018,33.7404918,-84.122651
2231,GWINNETT COUNTY POLICE DEPARTMENT,GA,30043,"http://maps.google.com/maps?q=2900 UNIVESTIY PARKWAY,+LAWRENCEVILLE,+GA+30043&hl=en","2900 UNIVESTIY PARKWAY, LAWRENCEVILLE, GA 30043",DEA,NTBD2018,33.982939,-83.9779224
2234,CVS PHARMACY,GA,30144,"http://maps.google.com/maps?q=2782 COBB PKWY.,+KENNESAW,+GA+30144&hl=en","2782 COBB PKWY., KENNESAW, GA 30144",DEA,NTBD2018,34.0231223,-84.625952
2238,MONROE POLICE DEPARTMENT,GA,30655,"http://maps.google.com/maps?q=WAYNE STREET,+MONROE,+GA+30655&hl=en","WAYNE STREET, MONROE, GA 30655",DEA,NTBD2018,33.7946614,-83.7140936
2240,WALMART SUPERCENTER TENT LOCATED AT THE PARKING LOT ENTRANCE,TN,37321,"http://maps.google.com/maps?q=3034 RHEA COUNTY HWY,+DAYTON,+TN+37321&hl=en","3034 RHEA COUNTY HWY, DAYTON, TN 37321",DEA,NTBD2018,35.4604181,-85.0439777
2249,ATLANTA POLICE DEPARTMENT ZONE 1 PRECINCT,GA,30318,"http://maps.google.com/maps?q=2315 DONALD LEE HOLLOWELL PKY. N.W.,+ATLANTA,+GA+30318&hl=en","2315 DONALD LEE HOLLOWELL PKY. N.W., ATLANTA, GA 30318",DEA,NTBD2018,33.7772902,-84.4607052
2258,COALMONT BESIDE L & L HARDWARE,TN,37313,"http://maps.google.com/maps?q=38 S. INDUSTRIAL PARK RD.,+COALMONT,+TN+37313&hl=en","38 S. INDUSTRIAL PARK RD., COALMONT, TN 37313",DEA,NTBD2018,35.3787074,-85.708429
2259,PEMBROKE POLICE DEPARTMENT,GA,31321,"http://maps.google.com/maps?q=154 W. RAILROAD ST.,+PEMBROKE,+GA+31321&hl=en","154 W. RAILROAD ST., PEMBROKE, GA 31321",DEA,NTBD2018,32.135349,-81.6234282
2260,CVS,GA,31322,"http://maps.google.com/maps?q=500 POOLER PARKWAY,+POOLER,+GA+31322&hl=en","500 POOLER PARKWAY, POOLER, GA 31322",DEA,NTBD2018,32.1352501,-81.2556261
2264,GLENNVILLE POLICE DEPARTMENT,GA,30427,"http://maps.google.com/maps?q=705 NORTH CASWELL STREET,+GLENNVILLE,+GA+30427&hl=en","705 NORTH CASWELL STREET, GLENNVILLE, GA 30427",DEA,NTBD2018,31.9463477,-81.924196
2267,"US ENVIRONMENTAL PROTECTIN AGENCY (EPA) COLLECTION IS APRIL 25-27, WEDNESDAY THRU FRIDAY",GA,30303,"http://maps.google.com/maps?q=61 FORSYTH STREET SW,+ATLANTA,+GA+30303&hl=en","61 FORSYTH STREET SWATLANTA FEDERAL CENTER, SAM NUNN TOWER, ATLANTA, GA 30303",DEA,NTBD2018,33.753356,-84.3941415
2268,WALMART,GA,31545,"http://maps.google.com/maps?q=1100 N 1ST STREET,+JESUP,+GA+31545&hl=en","1100 N 1ST STREET, JESUP, GA 31545",DEA,NTBD2018,31.6158824,-81.8717692
2274,FAYETTEVILLE POLICE DEPARTMENT,GA,30265,"http://maps.google.com/maps?q=760 JIMMIE MAYFIELD BLVD.,+NEWNAN,+GA+30265&hl=en","760 JIMMIE MAYFIELD BLVD., NEWNAN, GA 30265",DEA,NTBD2018,33.4327877,-84.4462274
2275,PEACHTREE CITY POLICE DEPARTMENT,GA,30269,"http://maps.google.com/maps?q=350 HIGHWAY 74 SOUTH,+PEACHTREE CITY,+GA+30269&hl=en","350 HIGHWAY 74 SOUTH, PEACHTREE CITY, GA 30269",DEA,NTBD2018,33.3743628,-84.5712413
2281,SOUTH EASTERN BANK,GA,31537,"http://maps.google.com/maps?q=4233 2ND STREET,+FOLKSTON,+GA+31537&hl=en","4233 2ND STREET, FOLKSTON, GA 31537",DEA,NTBD2018,30.8334965,-82.0071548
2292,ANNISTON ARMY DEPOT BLDG 206 AND 422,AL,36201,"http://maps.google.com/maps?q=7 FRANKFORD AVE,+ANNISTON,+AL+36201&hl=en","7 FRANKFORD AVEASAP, ANNISTON, AL 36201",DEA,NTBD2018,33.6267088,-85.969587
2295,BLOUNTSVILLE TOWN HALL,AL,35031,"http://maps.google.com/maps?q=10017 LEE ST,+BLOUNTSVILLE,+AL+35031&hl=en","10017 LEE ST, BLOUNTSVILLE, AL 35031",DEA,NTBD2018,34.0817095,-86.5914435
2302,OLIVER PARK,AL,35040,"http://maps.google.com/maps?q=HIGHWAY 25,+CALERA,+AL+35040&hl=en","HIGHWAY 25, CALERA, AL 35040",DEA,NTBD2018,33.1028804,-86.7530655
2303,QUINTARD MALL,AL,36203,"http://maps.google.com/maps?q=700 QUINTARD DRIVE,+OXFORD,+AL+36203&hl=en","700 QUINTARD DRIVE, OXFORD, AL 36203",DEA,NTBD2018,33.6135109,-85.8235423
2304,CHAMBERS COUNTY COURTHOUSE,AL,36862,"http://maps.google.com/maps?q=2 SOUTH LAFAYETTE STREET,+LAFAYETTE,+AL+36862&hl=en","2 SOUTH LAFAYETTE STREET, LAFAYETTE, AL 36862",DEA,NTBD2018,32.8994398,-85.4007532
2308,COOSA COUNTY SHERIFF'S OFFICE,AL,35136,"http://maps.google.com/maps?q=296 SCHOOL STREET,+ROCKFORD,+AL+35136&hl=en","296 SCHOOL STREET, ROCKFORD, AL 35136",DEA,NTBD2018,32.8894973,-86.221264
2309,CULLMAN COUNTY SHERIFF,AL,35055,"http://maps.google.com/maps?q=1910 BEECH AVENUE SE,+CULLMAN,+AL+35055&hl=en","1910 BEECH AVENUE SE, CULLMAN, AL 35055",DEA,NTBD2018,34.1508747,-86.8306487
2312,FRANKLIN COUNTY SHERIFF'S OFFICE,TN,37398,"http://maps.google.com/maps?q=494 GEORGE FRALEY PKWY,+WINCHESTER,+TN+37398&hl=en","494 GEORGE FRALEY PKWY, WINCHESTER, TN 37398",DEA,NTBD2018,35.1767412,-86.1341791
2314,HOOVER POLICE DEPARTMENT,AL,35216,"http://maps.google.com/maps?q=100 MUNICIPAL DRIVE,+BIRMINGHAM,+AL+35216&hl=en","100 MUNICIPAL DRIVE, BIRMINGHAM, AL 35216",DEA,NTBD2018,33.3876048,-86.8047782
2319,LINCOLN COUNTY HIGH SCHOOL,TN,37334,"http://maps.google.com/maps?q=1233 HUNTSVILLE HWY,+FAYETTEVILLE,+TN+37334&hl=en","1233 HUNTSVILLE HWY, FAYETTEVILLE, TN 37334",DEA,NTBD2018,35.1351532,-86.5683676
2320,LINEVILLE POLICE DEPARTMENT,AL,36266,"http://maps.google.com/maps?q=40 2ND AVENUE,+LINEVILLE,+AL+36266&hl=en","40 2ND AVENUE, LINEVILLE, AL 36266",DEA,NTBD2018,33.3143036,-85.7553214
2323,MTSU HEALTH SERVICES,TN,37132,"http://maps.google.com/maps?q=1848 BLUE RAIDER DRIVE,+MURFREESBORO,+TN+37132&hl=en","1848 BLUE RAIDER DRIVE, MURFREESBORO, TN 37132",DEA,NTBD2018,35.8465695,-86.3582114
2325,MONTGOMERY POLICE DEPARTMENT,AL,36109,"http://maps.google.com/maps?q=2190 EAST S. BLVD,+MONTGOMERY,+AL+36109&hl=en","2190 EAST S. BLVD, MONTGOMERY, AL 36109",DEA,NTBD2018,32.4173381,-86.2224494
2328,NORTH PRECINCT,AL,36867,"http://maps.google.com/maps?q=4301 PARK DRIVE,+PHENIX CITY,+AL+36867&hl=en","4301 PARK DRIVE, PHENIX CITY, AL 36867",DEA,NTBD2018,32.5069301,-85.0365195
2333,FRED'S PHARMACY,AL,35051,"http://maps.google.com/maps?q=21665 AL-25,+COLUMBIANA,+AL+35051&hl=en","21665 AL-25, COLUMBIANA, AL 35051",DEA,NTBD2018,33.1863913,-86.6100015
2335,PELHAM POLICE DEPARTMENT,AL,35124,"http://maps.google.com/maps?q=32 PHILIP DAVIS STREET,+PELHAM,+AL+35124&hl=en","32 PHILIP DAVIS STREET, PELHAM, AL 35124",DEA,NTBD2018,33.2865769,-86.8117564
2337,VINCENT FIRE DEPARTMENT,AL,35178,"http://maps.google.com/maps?q=42030 AL-25,+VINCENT,+AL+35178&hl=en","42030 AL-25, VINCENT, AL 35178",DEA,NTBD2018,33.3762972,-86.4167569
2339,WALGREENS PHARMACY,AL,35010,"http://maps.google.com/maps?q=3140 US 280,+ALEXANDER CITY,+AL+35010&hl=en","3140 US 280, ALEXANDER CITY, AL 35010",DEA,NTBD2018,32.9326719,-85.9718805
2342,BIRMINGHAM VA MEDICAL CENTER EMERGENCY ROOM,AL,35233,"http://maps.google.com/maps?q=700 SOUTH 19TH STREET,+BIRMINGHAM,+AL+35233&hl=en","700 SOUTH 19TH STREET, BIRMINGHAM, AL 35233",DEA,NTBD2018,33.5041206,-86.8015549
2351,NASSAU COUNTY SHERIFF'S OFFICE,FL,32097,"http://maps.google.com/maps?q=77151 CITIZENS CIR,+YULEE,+FL+32097&hl=en","77151 CITIZENS CIR, YULEE, FL 32097",DEA,NTBD2018,30.6120056,-81.6326041
2352,CARTHAGE CITY HALL,TN,37030,"http://maps.google.com/maps?q=314 SPRING ST.,+CARTHAGE,+TN+37030&hl=en","314 SPRING ST., CARTHAGE, TN 37030",DEA,NTBD2018,36.2527359,-85.9502937
2356,MARSHALL COUNTY SHERIFF'S OFFICE,TN,37091,"http://maps.google.com/maps?q=209 1ST AVE N.,+LEWISBURG,+TN+37091&hl=en","209 1ST AVE N., LEWISBURG, TN 37091",DEA,NTBD2018,35.4502673,-86.7875616
2363,HAVANA POLICE DEPARTMENT,FL,32333,"http://maps.google.com/maps?q=121 E. 7TH AVENUE,+HAVANA,+FL+32333&hl=en","121 E. 7TH AVENUE, HAVANA, FL 32333",DEA,NTBD2018,30.6255504,-84.414334
2365,KROGER,TN,37086,"http://maps.google.com/maps?q=5145 MURFREESBORO RD,+LA VERGNE,+TN+37086&hl=en","5145 MURFREESBORO RD, LA VERGNE, TN 37086",DEA,NTBD2018,36.0219922,-86.576144
2371,WALGREENS PHARMACY,TN,37067,"http://maps.google.com/maps?q=1509 MURFREESBORO RD,+FRANKLIN,+TN+37067&hl=en","1509 MURFREESBORO RD, FRANKLIN, TN 37067",DEA,NTBD2018,35.913644,-86.8195786
2373,CHEEK AND SCOTT PHARMACY (LAKE CITY),FL,32024,"http://maps.google.com/maps?q=161 SW STONEGATE TERRACE,+LAKE CITY,+FL+32024&hl=en","161 SW STONEGATE TERRACE#105, LAKE CITY, FL 32024",DEA,NTBD2018,30.1829151,-82.7073559
2377,SAINT JOHNS COUNTY SHERIFF'S OFFICE NORTHEAST,FL,32082,"http://maps.google.com/maps?q=1108 SR A1A,+PONTE VEDRA BEACH,+FL+32082&hl=en","1108 SR A1A#105, PONTE VEDRA BEACH, FL 32082",DEA,NTBD2018,29.0436057,-80.9345762
2378,WHITE SPRINGS POLICE DEPARTMENT,FL,32096,"http://maps.google.com/maps?q=10363 BRIDGE STREET,+WHITE SPRINGS,+FL+32096&hl=en","10363 BRIDGE STREET, WHITE SPRINGS, FL 32096",DEA,NTBD2018,30.335913,-82.759324
2379,LAKE CITY POLICE DEPT.,FL,32055,"http://maps.google.com/maps?q=225 NW MAIN BLVD,+LAKE CITY,+FL+32055&hl=en","225 NW MAIN BLVD, LAKE CITY, FL 32055",DEA,NTBD2018,30.1910759,-82.639082
2381,CALHOUN COUNTY SHERIFF'S OFFICE,FL,32424,"https://www.google.com/maps/place/Calhoun+County+Sheriff/@30.443489,-85.0453359,17z/data=!3m1!4b1!4m5!3m4!1s0x8893361aefd73b9b:0x37b0171b07f60602!8m2!3d30.443489!4d-85.0431472?hl=en","20838 NE WC REEDER DRIVE, BLOUNTSTOWN, FL 32424",DEA,NTBD2018,30.443489,-85.0453359
2385,POLICE DEPART,FL,32136,"http://maps.google.com/maps?q=204 SOUTH FLAGLER AVE,+FLAGLER BEACH,+FL+32136&hl=en","204 SOUTH FLAGLER AVE, FLAGLER BEACH, FL 32136",DEA,NTBD2018,29.477521,-81.1297989
2386,FLAGLER HOSPITAL,FL,32086,"http://maps.google.com/maps?q=101 HEALTH PARK BLVD.,+SAINT AUGUSTINE,+FL+32086&hl=en","101 HEALTH PARK BLVD., SAINT AUGUSTINE, FL 32086",DEA,NTBD2018,29.8620067,-81.3218323
2387,SAINT AUGUSTINE BEACH CITY HALL,FL,32080,"http://maps.google.com/maps?q=2200 A1A SOUTH,+SAINT AUGUSTINE,+FL+32080&hl=en","2200 A1A SOUTH, SAINT AUGUSTINE, FL 32080",DEA,NTBD2018,29.8547695,-81.2798301
2389,STROZIER LIBRARY FSU MAIN CAMPUS,FL,32306,"http://maps.google.com/maps?q=116 HONORS WAY,+TALLAHASSEE,+FL+32306&hl=en","116 HONORS WAY, TALLAHASSEE, FL 32306",DEA,NTBD2018,30.4430585,-84.2949798
2401,AUBURNDALE PD,FL,33823,"http://maps.google.com/maps?q=2 BOBBY GREEN PLAZA,+AUBURNDALE,+FL+33823&hl=en","2 BOBBY GREEN PLAZA, AUBURNDALE, FL 33823",DEA,NTBD2018,28.0642167,-81.7893955
2402,BARTOW POLICE DEPARTMENT,FL,33830,"http://maps.google.com/maps?q=450 NORTH BROADWAY AVENUE,+BARTOW,+FL+33830&hl=en","450 NORTH BROADWAY AVENUE450 NORTH BROADWAY AVENUE, BARTOW, FL 33830",DEA,NTBD2018,27.8986004,-81.8428814
2413,CVS,FL,33594,"http://maps.google.com/maps?q=2109 STATE ROAD 60 E,+VALRICO,+FL+33594&hl=en","2109 STATE ROAD 60 E, VALRICO, FL 33594",DEA,NTBD2018,27.9373134,-82.2515658
2427,BOGGY CREEK MARKETPLACE (STORE #1502) PHARMACY: (407) 348-7686,FL,34744,"http://maps.google.com/maps?q=2625 SIMPSON RD,+KISSIMMEE,+FL+34744&hl=en","2625 SIMPSON RD, KISSIMMEE, FL 34744",DEA,NTBD2018,28.3202489,-81.3370193
2432,HEALTH FIRST PALM BAY HOSPITAL DROP OFF IS LOCATED ON WEST SIDE OF BUILDING,FL,32907,"http://maps.google.com/maps?q=1425 MALABAR ROAD,+PALM BAY,+FL+32907&hl=en","1425 MALABAR ROAD, PALM BAY, FL 32907",DEA,NTBD2018,27.9989863,-80.7126449
2435,THE SHOPS AT WIREGRASS IST FLOOR PARKING GARAGE,FL,33543,"http://maps.google.com/maps?q=28211 PASEO DR,+WESLEY CHAPEL,+FL+33543&hl=en","28211 PASEO DR, WESLEY CHAPEL, FL 33543",DEA,NTBD2018,28.1890779,-82.3496817
2438,SANFORD POLICE DEPARTMENT,FL,32771,"http://maps.google.com/maps?q=815 HISTORIC GOLDSBORO BLVD.,+SANFORD,+FL+32771&hl=en","815 HISTORIC GOLDSBORO BLVD., SANFORD, FL 32771",DEA,NTBD2018,28.7996599,-81.2764479
2439,WALGREENS,FL,32937,"https://www.google.com/maps/place/Walgreens/@28.1836696,-80.5955446,17z/data=!4m13!1m7!3m6!1s0x88de1a8b6451f85f:0x31b6275f96514f8d!2s1098+Florida+A1A,+Satellite+Beach,+FL+32937!3b1!8m2!3d28.1836696!4d-80.5933559!3m4!1s0x88de1a8b65af3291:0xdcdd4477abd4be05!8m2!3d28.1836508!4d-80.5933515?hl=en","1098 SRA1A, SATELLITE BEACH, FL 32937",DEA,NTBD2018,28.1836696,-80.5955446
2440,SEMINOLE COUNTY SHERIFF'S OFFICE - MAIN OFFICE,FL,32773,"http://maps.google.com/maps?q=100 ESLINGER WAY,+SANFORD,+FL+32773&hl=en","100 ESLINGER WAY, SANFORD, FL 32773",DEA,NTBD2018,28.7479902,-81.2946351
2447,USF MORSANI CENTER FOR ADVANCED HEALTHCARE,FL,33613,"http://maps.google.com/maps?q=13330 USF LAUREL DRIVE,+TAMPA,+FL+33613&hl=en","13330 USF LAUREL DRIVE, TAMPA, FL 33613",DEA,NTBD2018,28.0670707,-82.4197402
2451,VOLUSIA SHERIFF'S DIST 6 OFFICE,FL,32713,"http://maps.google.com/maps?q=79 SOUTH CHARLES R. BEALL BLVD.,+DEBARY,+FL+32713&hl=en","79 SOUTH CHARLES R. BEALL BLVD., DEBARY, FL 32713",DEA,NTBD2018,28.8839859,-81.3079751
2456,ZEPHYRHILLS POLICE DEPARTMENT,FL,33542,"http://maps.google.com/maps?q=6118 8TH STREET,+ZEPHYRHILLS,+FL+33542&hl=en","6118 8TH STREET, ZEPHYRHILLS, FL 33542",DEA,NTBD2018,28.2469428,-82.1847039
2459,BASE EXCHANGE,FL,32542,"http://maps.google.com/maps?q=BLDG 1757 MEMORIAL LAKE TRAIL,+EGLIN AFB,+FL+32542&hl=en","BLDG 1757 MEMORIAL LAKE TRAIL, EGLIN AFB, FL 32542",DEA,NTBD2018,30.4660636,-86.5293903
2464,WALGREENS,FL,32505,"http://maps.google.com/maps?q=700 NORTH PACE BLVD,+PENSACOLA,+FL+32505&hl=en","700 NORTH PACE BLVD, PENSACOLA, FL 32505",DEA,NTBD2018,30.4201462,-87.2407635
2468,CITY DRUGS,AL,36451,"http://maps.google.com/maps?q=123 JACKSON STREET SOUTH,+GROVE HILL,+AL+36451&hl=en","123 JACKSON STREET SOUTH, GROVE HILL, AL 36451",DEA,NTBD2018,31.7079324,-87.7759413
2470,CVS PHARMACY,AL,36545,"http://maps.google.com/maps?q=813 COLLEGE AVENUE,+JACKSON,+AL+36545&hl=en","813 COLLEGE AVENUE, JACKSON, AL 36545",DEA,NTBD2018,31.5200916,-87.8961233
2471,MAC'S DRUGS,AL,36545,"http://maps.google.com/maps?q=201 COMMERCE STREET,+JACKSON,+AL+36545&hl=en","201 COMMERCE STREET, JACKSON, AL 36545",DEA,NTBD2018,31.5096962,-87.8930568
2472,WALMART,AL,36545,"http://maps.google.com/maps?q=4206 N. COLLEGE AVENUE,+JACKSON,+AL+36545&hl=en","4206 N. COLLEGE AVENUE, JACKSON, AL 36545",DEA,NTBD2018,31.559566,-87.8756883
2473,MONROE DRUGS,AL,36460,"http://maps.google.com/maps?q=360 SOUTH ALABAMA AVE,+MONROEVILLE,+AL+36460&hl=en","360 SOUTH ALABAMA AVE, MONROEVILLE, AL 36460",DEA,NTBD2018,31.5214726,-87.323315
2474,MONROEVILLE POLICE DEPARTMENT,AL,36460,"http://maps.google.com/maps?q=49 SOUTH MOUNT PLEASANT AVENUE,+MONROEVILLE,+AL+36460&hl=en","49 SOUTH MOUNT PLEASANT AVENUE, MONROEVILLE, AL 36460",DEA,NTBD2018,31.5261526,-87.3249994
2475,WALMART SHOPPING CENTER,AL,36460,"http://maps.google.com/maps?q=3371 SOUTH ALABAMA AVENUE,+MONROEVILLE,+AL+36460&hl=en","3371 SOUTH ALABAMA AVENUE, MONROEVILLE, AL 36460",DEA,NTBD2018,31.4805983,-87.3282674
2476,SHALIMAR POLICE DEPARTMENT,FL,32579,"http://maps.google.com/maps?q=2 CHEROKEE ROAD,+SHALIMAR,+FL+32579&hl=en","2 CHEROKEE ROAD, SHALIMAR, FL 32579",DEA,NTBD2018,30.4389586,-86.5830093
2477,WALMART,AL,36784,"http://maps.google.com/maps?q=34301 HIGHWAY 43,+THOMASVILLE,+AL+36784&hl=en","34301 HIGHWAY 43, THOMASVILLE, AL 36784",DEA,NTBD2018,31.9395496,-87.7395764
2478,WILCOX COUNTY COURTHOUSE,AL,36726,"http://maps.google.com/maps?q=100 BROAD STREET,+CAMDEN,+AL+36726&hl=en","100 BROAD STREET, CAMDEN, AL 36726",DEA,NTBD2018,31.9912868,-87.2889912
2480,THEO RATLIFF ACTIVITY CENTER PARKING LOT,AL,36732,"http://maps.google.com/maps?q=306 1ST AVENUE,+DEMOPOLIS,+AL+36732&hl=en","306 1ST AVENUE, DEMOPOLIS, AL 36732",DEA,NTBD2018,32.512515,-87.8284462
2483,MERIDIAN POLICE BONITA LAKES MALL POLICE PRECINCT NEAR THE FOOD COURT,MS,39301,"http://maps.google.com/maps?q=1680 BONITA LAKES CIRCLE,+MERIDIAN,+MS+39301&hl=en","1680 BONITA LAKES CIRCLE, MERIDIAN, MS 39301",DEA,NTBD2018,32.3575731,-88.6753275
2484,COSTCO,AL,36606,"http://maps.google.com/maps?q=1450 TINGLE CIRCLE EAST,+MOBILE,+AL+36606&hl=en","1450 TINGLE CIRCLE EAST, MOBILE, AL 36606",DEA,NTBD2018,30.6521431,-88.116656
2485,CVS PHARMACY #4888,AL,36608,"http://maps.google.com/maps?q=44523 OLD SHELL ROAD,+MOBILE,+AL+36608&hl=en","44523 OLD SHELL ROAD, MOBILE, AL 36608",DEA,NTBD2018,30.6894422,-88.1854182
2490,MOBILE COUNTY SHERIFF SOUTH SIDE OFFICE,AL,36695,"http://maps.google.com/maps?q=510 SOUTH ROYAL,+MOBILE,+AL+36695&hl=en","510 SOUTH ROYAL, MOBILE, AL 36695",DEA,NTBD2018,30.6792428,-88.0408172
2495,WASHINGTON COUNTY SHERIFFS OFFICE,AL,36518,"http://maps.google.com/maps?q=45 COURT STREET,+CHATOM,+AL+36518&hl=en","45 COURT STREET, CHATOM, AL 36518",DEA,NTBD2018,31.4831243,-88.2647192
2497,WALGREENS,FL,34266,"http://maps.google.com/maps?q=2575 NE HIGHWAY 70,+ARCADIA,+FL+34266&hl=en","2575 NE HIGHWAY 70, ARCADIA, FL 34266",DEA,NTBD2018,27.2088892,-81.8336173
2503,SARASOTA COUNTY SHERIFF'S OFFICE,FL,34293,"http://maps.google.com/maps?q=4531 STATE ROAD 776,+VENICE,+FL+34293&hl=en","4531 STATE ROAD 776, VENICE, FL 34293",DEA,NTBD2018,27.0423053,-82.4009239
2506,BOCA RATON POLICE SERVICES DEPARTMENT FRONT LOBBY,FL,33432,"http://maps.google.com/maps?q=100 NW BOCA RATON BLVD,+BOCA RATON,+FL+33432&hl=en","100 NW BOCA RATON BLVD, BOCA RATON, FL 33432",DEA,NTBD2018,26.351783,-80.088969
2513,NORTH PALM BEACH PD COLLECTION SITE IN THE LOBBY OF PD,FL,33408,"http://maps.google.com/maps?q=560 U.S. HWY ONE,+NORTH PALM BEACH,+FL+33408&hl=en","560 U.S. HWY ONE, NORTH PALM BEACH, FL 33408",DEA,NTBD2018,26.812472,-80.056233
2520,WALGREENS PHARMACY NO SHARPS/NEEDLES,FL,33325,"http://maps.google.com/maps?q=11204 STATE ROAD 84,+DAVIE,+FL+33325&hl=en","11204 STATE ROAD 84, DAVIE, FL 33325",DEA,NTBD2018,26.1102943,-80.2981881
2522,WALGREENS,FL,33063,"http://maps.google.com/maps?q=3000 NORTH STATE ROAD 7,+MARGATE,+FL+33063&hl=en","3000 NORTH STATE ROAD 7, MARGATE, FL 33063",DEA,NTBD2018,26.2667418,-80.200956
2526,FLORIDA INTERNATIONAL UNIVERSITY MAIN CAMPUS FIU PD/MD PD,FL,33199,"http://maps.google.com/maps?q=885 SW 109 AVENUE, PG-5,+MIAMI,+FL+33199&hl=en","885 SW 109 AVENUE, PG-5, MIAMI, FL 33199",DEA,NTBD2018,25.759952,-80.371136
2537,SUNNY ISLES BEACH POLICE HAULOVER PARK - BILL BIRD MARINA,FL,33160,"http://maps.google.com/maps?q=10800 COLLINS AVE,+NORTH MIAMI BEACH,+FL+33160&hl=en","10800 COLLINS AVEBILL BIRD MARINA, NORTH MIAMI BEACH, FL 33160",DEA,NTBD2018,25.9065985,-80.1244444
2541,WAL MART SUPERCENTER,MS,38843,"http://maps.google.com/maps?q=101 INTERCHANGE DR.,+FULTON,+MS+38843&hl=en","101 INTERCHANGE DR.1409 S. ADAMS ST., FULTON, MS 38843",DEA,NTBD2018,34.2424739,-88.4009315
2547,YORK CITY HALL,AL,36925,"http://maps.google.com/maps?q=607 2ND AVENUE,+YORK,+AL+36925&hl=en","607 2ND AVENUE, YORK, AL 36925",DEA,NTBD2018,32.4866571,-88.2962832
