address,googleMapsUrl,lat,lng,name,postal,source,state,source_date
"1315 WYOMING STE B, MISSOULA, MT 59801",http://maps.google.com/maps?q=CLINIC%20PHARMACY%2C1315%20WYOMING%20STE%20B%2C+MISSOULA%2C+MT+59801,46.871906,-114.01592,406 CLINIC PHARMACY,59801,DEA,MT,Dec2018
"1361 S. PATRICK DRIVE, PATRICK AFB, FL 32925",http://maps.google.com/maps?q=TH%20MEDICAL%20GROUP%20SATELLITE%20PHARMACY%2C1361%20S.%20PATRICK%20DRIVE%2C+PATRICK%20AFB%2C+FL+32925,28.217375300000004,-80.60467320000001,45TH MEDICAL GROUP SATELLITE PHARMACY,32925,DEA,FL,Dec2018
"210 SPRING STREET WEST, PO BOX 516, FRIDAY HARBOR, WA 98250",http://maps.google.com/maps?q=A%20%20H%20STORES%2C210%20SPRING%20STREET%20WEST%2C+FRIDAY%20HARBOR%2C+WA+98250,48.534134,-123.01700600000001,A & H STORES,98250,DEA,WA,Dec2018
"536 ABBOTT ST., SALINAS, CA 93901",http://maps.google.com/maps?q=A%20%20O%20SPECIALTY%20PHARMACY%2C536%20ABBOTT%20ST.%2C+SALINAS%2C+CA+93901,36.66493,-121.64361000000001,A & O SPECIALTY PHARMACY,93901,DEA,CA,Dec2018
"17833 1ST AVE. S. STE. C, NORMANDY PARK, WA 98148",http://maps.google.com/maps?q=ACCESS%20PHARMACY%2C17833%201ST%20AVE.%20S.%20STE.%20C%2C+NORMANDY%20PARK%2C+WA+98148,47.443090000000005,-122.33425,ACCESS PHARMACY,98148,DEA,WA,Dec2018
"1018 WEST ATHERTON DRIVE, SUITE 202, SALT LAKE CITY, UT 84123",http://maps.google.com/maps?q=ACUPHARM%20LLC%2C1018%20WEST%20ATHERTON%20DRIVE%2C+SALT%20LAKE%20CITY%2C+UT+84123,40.671079999999996,-111.92193600000002,"ACUPHARM, LLC",84123,DEA,UT,Dec2018
"10820 MARVIN JONES BLVD, DOWLING PARK, FL 32060",http://maps.google.com/maps?q=ACV%20COMMUNITY%20SERVICES%20LLC%2C10820%20MARVIN%20JONES%20BLVD%2C+DOWLING%20PARK%2C+FL+32060,30.253909000000004,-83.235371,ACV COMMUNITY SERVICES LLC,32060,DEA,FL,Dec2018
"113 N. 9TH ST, ADEL, IA 50003",http://maps.google.com/maps?q=ADEL%20HEALTHMART%2C113%20%20N.%209TH%20ST%2C+ADEL%2C+IA+50003,41.617340000000006,-94.01874000000001,ADEL HEALTHMART,50003,DEA,IA,Dec2018
"4315 MAIN STREET, PORT HENRY, NY 12974",http://maps.google.com/maps?q=ADIRONDACK%20APOTHECARY%20LLC%2C4315%20MAIN%20STREET%2C+PORT%20HENRY%2C+NY+12974,44.048294,-73.459625,ADIRONDACK APOTHECARY LLC,12974,DEA,NY,Dec2018
"1325 N MAIN ST STE H, ADRIAN, MI 49221",http://maps.google.com/maps?q=ADRIAN%20PHARMACY%20LLC%2C1325%20N%20MAIN%20ST%20STE%20H%2C+ADRIAN%2C+MI+49221,41.880978000000006,-84.04325,ADRIAN PHARMACY LLC,49221,DEA,MI,Dec2018
"2000 S. MAYS STREET, SUITE 200, ROUND ROCK, TX 78664",http://maps.google.com/maps?q=ADVANCED%20RX%20PHARMACY%2C2000%20S.%20MAYS%20STREET%2C+ROUND%20ROCK%2C+TX+78664,30.528885,-97.68823,ADVANCED RX PHARMACY 030,78664,DEA,TX,Dec2018
"4800 S. SAGINAW ST., SUITE 1675, FLINT, MI 48507",http://maps.google.com/maps?q=ADVANCED%20SPECIALTY%20RX%20LLC%2C4800%20S.%20SAGINAW%20ST.%2C+FLINT%2C+MI+48507,42.982536100000004,-83.6760117,ADVANCED SPECIALTY RX LLC,48507,DEA,MI,Dec2018
"3685-A LEAPHART ROAD, WEST COLUMBIA, SC 29169",http://maps.google.com/maps?q=AGAPE%20PHARMACY%2C3685-A%20LEAPHART%20ROAD%2C+WEST%20COLUMBIA%2C+SC+29169,34.003464,-81.135666,AGAPE PHARMACY,29169,DEA,SC,Dec2018
"276 S. MILL ST., SUITE A, TEHACHAPI, CA 93561",http://maps.google.com/maps?q=AGIA%20PHARMACY%20%20CAFE%2C276%20S.%20MILL%20ST.%2C+TEHACHAPI%2C+CA+93561,35.13085,-118.45265,AGIA PHARMACY & CAFE,93561,DEA,CA,Dec2018
"1230 N. HIGH STREET, COLUMBUS, OH 43201",http://maps.google.com/maps?q=AHF%20PHARMACY%2C1230%20N.%20HIGH%20STREET%2C+COLUMBUS%2C+OH+43201,39.98753,-83.00559,AHF PHARMACY,43201,DEA,OH,Dec2018
"1858 CHESHIRE BRIDGE ROAD NE, ATLANTA, GA 30324",http://maps.google.com/maps?q=AHF%20PHARMACY%2C1858%20CHESHIRE%20BRIDGE%20ROAD%20NE%2C+ATLANTA%2C+GA+30324,33.809395,-84.36189,AHF PHARMACY,30324,DEA,GA,Dec2018
"3920 CEDAR SPRINGS ROAD, DALLAS, TX 75219",http://maps.google.com/maps?q=AHF%20PHARMACY%2C3920%20CEDAR%20SPRINGS%20ROAD%2C+DALLAS%2C+TX+75219,32.81022,-96.81018,AHF PHARMACY,75219,DEA,TX,Dec2018
"400 N BEACH STREET, STE 102, FORT WORTH, TX 76111",http://maps.google.com/maps?q=AHF%20PHARMACY%2C400%20N%20BEACH%20STREET%2C%20STE%20102%2C+FORT%20WORTH%2C+TX+76111,32.762177,-97.2877,AHF PHARMACY,76111,DEA,TX,Dec2018
"1701 NORTH MILLS AVENUE, ORLANDO, FL 32803",http://maps.google.com/maps?q=AIDS%20HEALTHCARE%20FOUNDATION%2C1701%20NORTH%20MILLS%20AVENUE%2C+ORLANDO%2C+FL+32803,28.566934999999997,-81.36444,AIDS HEALTHCARE FOUNDATION,32803,DEA,FL,Dec2018
"2 SHIRCLIFF WAY, SUITE 900, JACKSONVILLE, FL 32204",http://maps.google.com/maps?q=AIDS%20HEALTHCARE%20FOUNDATION%2C2%20SHIRCLIFF%20WAY%2C+JACKSONVILLE%2C+FL+32204,30.3071989,-81.68987220000001,AIDS HEALTHCARE FOUNDATION,32204,DEA,FL,Dec2018
"2097 WILTON DR, WILTON MANORS, FL 33305",http://maps.google.com/maps?q=AIDS%20HEALTHCARE%20FOUNDATION%2C2097%20WILTON%20DR%2C+WILTON%20MANORS%2C+FL+33305,26.154255,-80.14005999999999,AIDS HEALTHCARE FOUNDATION,33305,DEA,FL,Dec2018
"2900 N. BISCAYNE BLVD., MIAMI, FL 33137",http://maps.google.com/maps?q=AIDS%20HEALTHCARE%20FOUNDATION%2C2900%20N.%20BISCAYNE%20BLVD.%2C+MIAMI%2C+FL+33137,25.80432,-80.18938,AIDS HEALTHCARE FOUNDATION,33137,DEA,FL,Dec2018
"3135 SR 580, SUITE 1, SAFETY HARBOR, FL 34695",http://maps.google.com/maps?q=AIDS%20HEALTHCARE%20FOUNDATION%2C3135%20SR%20580%2C+SAFETY%20HARBOR%2C+FL+34695,28.0243335,-82.707072,AIDS HEALTHCARE FOUNDATION,34695,DEA,FL,Dec2018
"3400 26TH AVE S, ST PETERSBURG, FL 33711",http://maps.google.com/maps?q=AIDS%20HEALTHCARE%20FOUNDATION%2C3400%2026TH%20AVE%20S%2C+ST%20PETERSBURG%2C+FL+33711,27.744691999999997,-82.679436,AIDS HEALTHCARE FOUNDATION,33711,DEA,FL,Dec2018
"475 ATLANTIC AVE, BROOKLYN, NY 11217",http://maps.google.com/maps?q=AIDS%20HEALTHCARE%20FOUNDATION%2C475%20ATLANTIC%20AVE%2C+BROOKLYN%2C+NY+11217,40.685825,-73.98195,AIDS HEALTHCARE FOUNDATION,11217,DEA,NY,Dec2018
"6405 N. FEDERAL HIGHWAY, #205, FT LAUDERDALE, FL 33308",http://maps.google.com/maps?q=AIDS%20HEALTHCARE%20FOUNDATION%2C6405%20N.%20FEDERAL%20HIGHWAY%2C+FT%20LAUDERDALE%2C+FL+33308,26.20681,-80.108086,AIDS HEALTHCARE FOUNDATION,33308,DEA,FL,Dec2018
"700 SE 3RD AVENUE, SUITE 100, FT LAUDERDALE, FL 33316",http://maps.google.com/maps?q=AIDS%20HEALTHCARE%20FOUNDATION%2C700%20SE%203RD%20AVENUE%2C+FT%20LAUDERDALE%2C+FL+33316,26.113012,-80.140175,AIDS HEALTHCARE FOUNDATION,33316,DEA,FL,Dec2018
"3500 E. PACIFIC COAST HIGHWAY, LONG BEACH, CA 90804",http://maps.google.com/maps?q=AIDS%20HEALTHCARE%20FOUNDATION%20DBA%20AHF%20PHARMACY%2C3500%20E.%20PACIFIC%20COAST%20HIGHWAY%2C+LONG%20BEACH%2C+CA+90804,33.789875,-118.15126000000001,AIDS HEALTHCARE FOUNDATION DBA AHF PHARMACY,90804,DEA,CA,Dec2018
"4071 18TH STR., SAN FRANCISCO, CA 94114",http://maps.google.com/maps?q=AIDS%20HEALTHCARE%20FOUNDATION%20DBA%20AHF%20PHARMACY%2C4071%2018TH%20STR.%2C+SAN%20FRANCISCO%2C+CA+94114,37.760914,-122.43436399999999,AIDS HEALTHCARE FOUNDATION DBA AHF PHARMACY,94114,DEA,CA,Dec2018
"4890 BLUEBONNET BLVD., BATON ROUGE, LA 70809",http://maps.google.com/maps?q=AIDS%20HEALTHCARE%20FOUNDATION%20DBA%20AHF%20PHARMACY%2C4890%20BLUEBONNET%20BLVD.%2C+BATON%20ROUGE%2C+LA+70809,30.403309999999998,-91.08372,AIDS HEALTHCARE FOUNDATION DBA AHF PHARMACY,70809,DEA,LA,Dec2018
"6210 SUNSET BLVD., LOS ANGELES, CA 90028",http://maps.google.com/maps?q=AIDS%20HEALTHCARE%20FOUNDATION%20DBA%20AHF%20PHARMACY%2C6210%20SUNSET%20BLVD.%2C+LOS%20ANGELES%2C+CA+90028,34.09799,-118.325226,AIDS HEALTHCARE FOUNDATION DBA AHF PHARMACY,90028,DEA,CA,Dec2018
"1785 E. SUNRISE BLVD., FORT LAUDERDALE, FL 33304",http://maps.google.com/maps?q=AIDS%20HEALTHCARE%20FOUNDATION%20DBA%20AHF%20PHARMACY%2C1785%20E.%20SUNRISE%20BLVD.%2C+FORT%20LAUDERDALE%2C+FL+33304,26.137379,-80.12252,"AIDS HEALTHCARE FOUNDATION, DBA AHF PHARMACY",33304,DEA,FL,Dec2018
"11919 W. SPRAGUE AVENUE, P O BOX 1899, AIRWAY HEIGHTS, WA 99001",http://maps.google.com/maps?q=AIRWAY%20HGHTS%20CORRECTIONS%20CTR%2C11919%20W.%20SPRAGUE%20AVENUE%2C+AIRWAY%20HEIGHTS%2C+WA+99001,47.657276,-117.58006999999999,AIRWAY HGHTS CORRECTIONS CTR,99001,DEA,WA,Dec2018
"2222 MAIN STREET, CAMBRIA, CA 93428",http://maps.google.com/maps?q=ALS%20PHARMACY%20AND%20COMPOUNDING%20CENTER%20INC%2C2222%20MAIN%20STREET%2C+CAMBRIA%2C+CA+93428,35.564034,-121.08243,"AL'S PHARMACY AND COMPOUNDING CENTER, INC.",93428,DEA,CA,Dec2018
"177 N BARLOW, LINCOLN, MI 48742",http://maps.google.com/maps?q=ALCONA%20HEALTH%20CENTER%20PHARMACY%2C177%20N%20BARLOW%2C+LINCOLN%2C+MI+48742,44.66053,-83.403046,ALCONA HEALTH CENTER PHARMACY,48742,DEA,MI,Dec2018
"1185 US 23 NORTH, ALPENA, MI 49707",http://maps.google.com/maps?q=ALCONA%20HEALTH%20CENTER%20PHARMACY%20SERVICES%2C1185%20US%2023%20NORTH%2C+ALPENA%2C+MI+49707,45.0912911,-83.4584597,ALCONA HEALTH CENTER PHARMACY SERVICES,49707,DEA,MI,Dec2018
"13203 BROADWAY, ALDEN, NY 14004",http://maps.google.com/maps?q=ALDEN%20PHARMACY%20INC%2C13203%20BROADWAY%2C+ALDEN%2C+NY+14004,42.900203999999995,-78.49611999999999,ALDEN PHARMACY INC,14004,DEA,NY,Dec2018
"25680 104TH AVE SE, KENT, WA 98030",http://maps.google.com/maps?q=ALEXANDRIA%20DRUGS%20LLC%2C25680%20104TH%20AVE%20SE%2C+KENT%2C+WA+98030,47.372066,-122.2024,ALEXANDRIA DRUGS LLC,98030,DEA,WA,Dec2018
"515 MINOR AVE, SUITE# 120, SEATTLE, WA 98104",http://maps.google.com/maps?q=ALEXANDRIA%20DRUGS%20LLC%2C515%20MINOR%20AVE%2C+SEATTLE%2C+WA+98104,47.606915,-122.32141999999999,"ALEXANDRIA DRUGS, LLC",98104,DEA,WA,Dec2018
"36 N MAIN ST, ALFRED, NY 14802",http://maps.google.com/maps?q=ALFRED%20PHARMACY%2C36%20N%20MAIN%20ST%2C+ALFRED%2C+NY+14802,42.255573,-77.79,ALFRED PHARMACY,14802,DEA,NY,Dec2018
"133 PARK STREET, MALONE, NY 12953",http://maps.google.com/maps?q=ALICE%20HYDE%20MEDICAL%20CENTER%2C133%20PARK%20STREET%2C+MALONE%2C+NY+12953,44.856834,-74.29198000000001,ALICE HYDE MEDICAL CENTER,12953,DEA,NY,Dec2018
"10132 WEST 76TH STREET, EDEN PRAIRIE, MN 55344",http://maps.google.com/maps?q=ALIXA%20RX%20LLC%2C10132%20WEST%2076TH%20STREET%2C+EDEN%20PRAIRIE%2C+MN+55344,44.86614,-93.406425,ALIXA RX LLC,55344,DEA,MN,Dec2018
"902 SOUTH 6TH STREET, COUNCIL BLUFFS, IA 51501",http://maps.google.com/maps?q=ALL%20CARE%20HEALTH%20CENTER%2C902%20SOUTH%206TH%20STREET%2C+COUNCIL%20BLUFFS%2C+IA+51501,41.253338,-95.85305,ALL CARE HEALTH CENTER,51501,DEA,IA,Dec2018
"331 MAIN STREET, SALINAS, CA 93901",http://maps.google.com/maps?q=ALLCARE%20PHARMACY%2C331%20MAIN%20STREET%2C+SALINAS%2C+CA+93901,36.67285,-121.65465,ALLCARE PHARMACY,93901,DEA,CA,Dec2018
"146 WEST DALE ST, STE 103, WATERLOO, IA 50703",http://maps.google.com/maps?q=ALLEN%20CLINIC%20PHARMACY%2C146%20WEST%20DALE%20ST%2C+WATERLOO%2C+IA+50703,42.525776,-92.34022,ALLEN CLINIC PHARMACY,50703,DEA,IA,Dec2018
"9397 CROWN CREST BLVD, STE 101, PARKER, CO 80138",http://maps.google.com/maps?q=ALLHEALTH%20NETWORK%20PHARMACY%20AT%20PARKER%2C9397%20CROWN%20CREST%20BLVD%2C+PARKER%2C+CO+80138,39.548378,-104.76929399999999,ALLHEALTH NETWORK PHARMACY AT PARKER,80138,DEA,CO,Dec2018
"1245 HIGHLAND AVE, ABINGTON, PA 19001",http://maps.google.com/maps?q=ALLIANCE%20PHARMACY%20CO%2C1245%20HIGHLAND%20AVE%2C+ABINGTON%2C+PA+19001,40.118996,-75.12223,ALLIANCE PHARMACY CO,19001,DEA,PA,Dec2018
"110 W. MAIN ST., CAMPBELLSPORT, WI 53010",http://maps.google.com/maps?q=ALMOATASIM%20LLC%2C110%20W.%20MAIN%20ST.%2C+CAMPBELLSPORT%2C+WI+53010,43.59816,-88.28548,"ALMOATASIM, LLC",53010,DEA,WI,Dec2018
"DBA NORTHLAND MEDICAL BLDG., 20905 GREENFIELD ROAD, SOUTHFIELD, MI 48075",http://maps.google.com/maps?q=ALPHARM%20CORPORATION%2CDBA%20NORTHLAND%20MEDICAL%20BLDG.%2C+SOUTHFIELD%2C+MI+48075,42.46,-83.21,ALPHARM CORPORATION,48075,DEA,MI,Dec2018
"6475 HIGHWAY 93 SOUTH, WHITEFISH, MT 59937",http://maps.google.com/maps?q=ALPINE%20APOTHECARY%2C6475%20HIGHWAY%2093%20SOUTH%2C+WHITEFISH%2C+MT+59937,48.394659999999995,-114.333767,ALPINE APOTHECARY,59937,DEA,MT,Dec2018
"1380 COLUMBIA RD S, GRAND FORKS, ND 58201",http://maps.google.com/maps?q=ALTRU%20CLINIC%20PHARMACY%20%20FAMILY%20MED%20CTR%20INC%2C1380%20COLUMBIA%20RD%20S%2C+GRAND%20FORKS%2C+ND+58201,47.9078599,-97.068138,ALTRU CLINIC PHARMACY - FAMILY MED CTR INC,58201,DEA,ND,Dec2018
"1200 SOUTH COLUMBIA ROAD, GRAND FORKS, ND 58201",http://maps.google.com/maps?q=ALTRU%20HEALTH%20SYSTEM%2C1200%20SOUTH%20COLUMBIA%20ROAD%2C+GRAND%20FORKS%2C+ND+58201,47.910194,-97.066475,ALTRU HEALTH SYSTEM,58201,DEA,ND,Dec2018
"1855 ALUM ROCK AVE SUITE A, SAN JOSE, CA 95116",http://maps.google.com/maps?q=ALUM%20ROCK%20PHARMACY%20INC%2C1855%20ALUM%20ROCK%20AVE%20SUITE%20A%2C+SAN%20JOSE%2C+CA+95116,37.354134,-121.85278000000001,ALUM ROCK PHARMACY INC,95116,DEA,CA,Dec2018
"1381 UNIVERSITY ST SUITE A, HEALDSBURG, CA 95448",http://maps.google.com/maps?q=AMC%20COMMUNITY%20PHARMACY%2C1381%20UNIVERSITY%20ST%20SUITE%20A%2C+HEALDSBURG%2C+CA+95448,38.627026,-122.863754,AMC COMMUNITY PHARMACY,95448,DEA,CA,Dec2018
"750 E LONG ST, SUITE 3100, COLUMBUS, OH 43203",http://maps.google.com/maps?q=AMC%20OHIO%20LLC%20DBA%20EQUITAS%20HEALTH%20PHARMACY%2C750%20E%20LONG%20ST%2C+COLUMBUS%2C+OH+43203,39.967240000000004,-82.98135,"AMC OHIO LLC, DBA EQUITAS HEALTH PHARMACY #3",43203,DEA,OH,Dec2018
"2503 E 54TH ST. N, SIOUX FALLS, SD 57104",http://maps.google.com/maps?q=AMERIPHARM%20INC%2C2503%20E%2054TH%20ST.%20N%2C+SIOUX%20FALLS%2C+SD+57104,43.594696,-96.71699,"AMERIPHARM, INC",57104,DEA,SD,Dec2018
"265 E GRIFFIN ST, AMERY, WI 54001",http://maps.google.com/maps?q=AMERY%20REGIONAL%20MEDICAL%20CENTER%2C265%20E%20GRIFFIN%20ST%2C+AMERY%2C+WI+54001,45.2968696,-92.36109609999998,AMERY REGIONAL MEDICAL CENTER,54001,DEA,WI,Dec2018
"5001 NW 34TH BLVD SUITE B, GAINESVILLE, FL 32605",http://maps.google.com/maps?q=ANDERSONSCOKELEE%20INC%2C5001%20NW%2034TH%20BLVD%20SUITE%20B%2C+GAINESVILLE%2C+FL+32605,29.700609999999998,-82.37291,"ANDERSON-SCOKELEE, INC",32605,DEA,FL,Dec2018
"495 DUNLOP LANE, SUITE 106, CLARKSVILLE, TN 37040",http://maps.google.com/maps?q=ANESTHESIA%20SERVICES%20ASSOCIATES%20PLLC%2C495%20DUNLOP%20LANE%2C+CLARKSVILLE%2C+TN+37040,36.58062,-87.27658000000001,"ANESTHESIA SERVICES ASSOCIATES, PLLC",37040,DEA,TN,Dec2018
"3625 N ANKENY BLVD, SUITE A, ANKENY, IA 50023",http://maps.google.com/maps?q=ANKENY%20MEDICAL%20PARK%20PHARMACY%2C3625%20N%20ANKENY%20BLVD%2C+ANKENY%2C+IA+50023,41.75543629999999,-93.59953420000001,ANKENY MEDICAL PARK PHARMACY,50023,DEA,IA,Dec2018
"6 W. MICHIGAN AVE, YPSILANTI, MI 48197",http://maps.google.com/maps?q=ANN%20ARBOR%20PROFESSIONAL%20PHARMACY%2C6%20W.%20MICHIGAN%20AVE%2C+YPSILANTI%2C+MI+48197,42.24106,-83.61206,ANN ARBOR PROFESSIONAL PHARMACY,48197,DEA,MI,Dec2018
"DBA MEDICINE SHOPPE OF NEW SMY, 1141 N DIXIE FREEWAY, NEW SMYRNA BEACH, FL 32168",http://maps.google.com/maps?q=APB%20%20J%20CORP%2CDBA%20MEDICINE%20SHOPPE%20OF%20NEW%20SMY%2C+NEW%20SMYRNA%20BEACH%2C+FL+32168,29.0431289,-80.9337124,APB & J CORP,32168,DEA,FL,Dec2018
"82 MAIN STREET, PO BOX 919, MEADVILLE, MS 39653",http://maps.google.com/maps?q=APOTHECARELLC%2C82%20MAIN%20STREET%2C+MEADVILLE%2C+MS+39653,31.472545,-90.89228299999999,"APOTHECARE,LLC",39653,DEA,MS,Dec2018
"1040 NW 22ND AVE, STE 100, PORTLAND, OR 97210",http://maps.google.com/maps?q=APOTHECARY%20AT%20GOOD%20SAMARITAN%2C1040%20NW%2022ND%20AVE%2C+PORTLAND%2C+OR+97210,45.530125,-122.69657,APOTHECARY AT GOOD SAMARITAN,97210,DEA,OR,Dec2018
"2121 N.E. 139TH STREET, SUITE 310, VANCOUVER, WA 98686",http://maps.google.com/maps?q=APOTHECARY%20AT%20SALMON%20CREEK%2C2121%20N.E.%20139TH%20STREET%2C+VANCOUVER%2C+WA+98686,45.721848,-122.65,APOTHECARY AT SALMON CREEK,98686,DEA,WA,Dec2018
"207 EAST MAIN STREET, REMINGTON, VA 22734",http://maps.google.com/maps?q=APOTHECARY%20SOLUTIONS%20LLC%2C207%20EAST%20MAIN%20STREET%2C+REMINGTON%2C+VA+22734,38.5331843,-77.80704159999999,APOTHECARY SOLUTIONS LLC,22734,DEA,VA,Dec2018
"DUSKIN CORY, 540 N WEST AVENUE, ARLINGTON, WA 98223",http://maps.google.com/maps?q=ARLINGTON%20PHARMACY%2CDUSKIN%20CORY%2C+ARLINGTON%2C+WA+98223,48.198271999999996,-122.12863999999999,ARLINGTON PHARMACY,98223,DEA,WA,Dec2018
"3700 NORTH CAPITOL ST, NW, SHERMAN BLDG, ROOM 103, WASHINGTON, DC 20011",http://maps.google.com/maps?q=ARMED%20FORCES%20RETIREMENT%20HOME%2C3700%20NORTH%20CAPITOL%20ST%2C%20NW%2C+WASHINGTON%2C+DC+20011,38.94275,-77.007975,ARMED FORCES RETIREMENT HOME,20011,DEA,DC,Dec2018
"3650 W ARMITAGE AVE, STE 100, CHICAGO, IL 60647",http://maps.google.com/maps?q=ARMITAGE%20PHARMACY%20INC%2C3650%20W%20ARMITAGE%20AVE%2C+CHICAGO%2C+IL+60647,41.91728,-87.71839,"ARMITAGE PHARMACY, INC.",60647,DEA,IL,Dec2018
"1725 TIMBER LINE ROAD, MAUMEE, OH 43537",http://maps.google.com/maps?q=ARROWHEAD%20BEHAVIORAL%20HEALTH%2C1725%20TIMBER%20LINE%20ROAD%2C+MAUMEE%2C+OH+43537,41.58951,-83.68744000000001,ARROWHEAD BEHAVIORAL HEALTH,43537,DEA,OH,Dec2018
"1446 LEE BLVD, LEHIGH ACRES, FL 33936",http://maps.google.com/maps?q=ARTH%20LLC%2C1446%20%20LEE%20BLVD%2C+LEHIGH%20ACRES%2C+FL+33936,26.6143507,-81.6562556,ARTH LLC,33936,DEA,FL,Dec2018
"PRINCETON PLAZA PHARMACY, 1800 MERCY DRIVE, ORLANDO, FL 32808",http://maps.google.com/maps?q=ASPIRE%20HEALTH%20PARTNERS%20INC%2CPRINCETON%20PLAZA%20PHARMACY%2C+ORLANDO%2C+FL+32808,28.56,-81.43,"ASPIRE HEALTH PARTNERS, INC.",32808,DEA,FL,Dec2018
"1400 WEST ICE LAKE ROAD, IRON RIVER, MI 49935",http://maps.google.com/maps?q=ASPIRUS%20IRON%20RIVER%20HOSPITAL%20%20CLINICS%20INC%2C1400%20WEST%20ICE%20LAKE%20ROAD%2C+IRON%20RIVER%2C+MI+49935,46.099841,-88.61967299999999,"ASPIRUS IRON RIVER HOSPITAL & CLINICS, INC",49935,DEA,MI,Dec2018
"PHARMACY, 1601 STATE AVE NW, OWATONNA, MN 55060",http://maps.google.com/maps?q=ASTRUP%20DRUG%20INC%2CPHARMACY%2C+OWATONNA%2C+MN+55060,44.0884391,-93.2306349,ASTRUP DRUG INC,55060,DEA,MN,Dec2018
"800 RAVEN HILL DRIVE, ATCHISON, KS 66002",http://maps.google.com/maps?q=ATCHISON%20HOSPITAL%20ASSOCIATION%2C800%20RAVEN%20HILL%20DRIVE%2C+ATCHISON%2C+KS+66002,39.5366253,-95.12823859999999,ATCHISON HOSPITAL ASSOCIATION,66002,DEA,KS,Dec2018
"260 WEST MAIN STREET, SUITE 217, HENDERSONVILLE, TN 37075",http://maps.google.com/maps?q=ATRIUM%20PHARMACY%2C260%20WEST%20MAIN%20STREET%2C+HENDERSONVILLE%2C+TN+37075,36.30515,-86.61848,ATRIUM PHARMACY,37075,DEA,TN,Dec2018
"155 KINGSLEY LANE, STE 125, NORFOLK, VA 23505",http://maps.google.com/maps?q=ATRIUM%20PHARMACY%20AT%20DEPAUL%2C155%20KINGSLEY%20LANE%2C+NORFOLK%2C+VA+23505,36.8983,-76.28130999999999,ATRIUM PHARMACY AT DEPAUL,23505,DEA,VA,Dec2018
"2565 HORIZON LAKE BLVD., STE. 113, MEMPHIS, TN 38133",http://maps.google.com/maps?q=ATRIUM%20PHARMACY%20MEMPHIS%2C2565%20HORIZON%20LAKE%20BLVD.%2C+MEMPHIS%2C+TN+38133,35.19536,-89.79706999999999,ATRIUM PHARMACY MEMPHIS,38133,DEA,TN,Dec2018
"1120 15TH STREET, ROOM BI-2101, AUGUSTA, GA 30912",http://maps.google.com/maps?q=AU%20MEDICAL%20CENTER%20INPATIENT%20PHARMACY%2C1120%2015TH%20STREET%2C%20ROOM%20BI-2101%2C+AUGUSTA%2C+GA+30912,33.4712295,-81.98993670000002,AU MEDICAL CENTER INPATIENT PHARMACY,30912,DEA,GA,Dec2018
"1011 BAPTISTE DRIVE, PAOLA, KS 66071",http://maps.google.com/maps?q=AUBURN%20PHARMACY%20INC%2C1011%20BAPTISTE%20DRIVE%2C+PAOLA%2C+KS+66071,38.57659,-94.86831,AUBURN PHARMACY INC,66071,DEA,KS,Dec2018
"2150 W 18TH STREET, SUITE 300 RM B, HOUSTON, TX 77008",http://maps.google.com/maps?q=AVENUE%20%20HEALTH%20AND%20WELLNESS%2C2150%20W%2018TH%20STREET%2C+HOUSTON%2C+TX+77008,29.801592,-95.43736,AVENUE 360 HEALTH AND WELLNESS,77008,DEA,TX,Dec2018
"826 N 8TH STREET, ESTHERVILLE, IA 51334",http://maps.google.com/maps?q=AVERA%20HOLY%20FAMILY%20HEALTH%2C826%20N%208TH%20STREET%2C+ESTHERVILLE%2C+IA+51334,43.410778,-94.83382399999999,AVERA HOLY FAMILY HEALTH,51334,DEA,IA,Dec2018
"716 MADISON AVENUE, COVINGTON, KY 41011",http://maps.google.com/maps?q=B%20S%20D%20INC%2C716%20MADISON%20AVENUE%2C+COVINGTON%2C+KY+41011,39.08316,-84.51004,B S D INC,41011,DEA,KY,Dec2018
"9201 W THOMAS ROAD, PHOENIX, AZ 85037",http://maps.google.com/maps?q=BANNER%20FAMILY%20PHARMACY%20%20ESTRELLA%2C9201%20W%20THOMAS%20ROAD%2C+PHOENIX%2C+AZ+85037,33.47967,-112.257576,BANNER FAMILY PHARMACY - ESTRELLA,85037,DEA,AZ,Dec2018
"1900 N HIGLEY RD, GILBERT, AZ 85234",http://maps.google.com/maps?q=BANNER%20FAMILY%20PHARMACY%20%20GATEWAY%2C1900%20N%20HIGLEY%20RD%2C+GILBERT%2C+AZ+85234,33.376290999999995,-111.72370500000001,BANNER FAMILY PHARMACY - GATEWAY,85234,DEA,AZ,Dec2018
"2946 E BANNER GATEWAY DRIVE, GILBERT, AZ 85234",http://maps.google.com/maps?q=BANNER%20FAMILY%20PHARMACY%20%20MD%20ANDERSON%2C2946%20E%20BANNER%20GATEWAY%20DRIVE%2C+GILBERT%2C+AZ+85234,33.384997999999996,-111.725725,BANNER FAMILY PHARMACY - MD ANDERSON,85234,DEA,AZ,Dec2018
"1501 N CAMPBELL AVE, TUCSON, AZ 85724",http://maps.google.com/maps?q=BANNER%20FAMILY%20PHARMACY%20%20UNIVERSITY%20MED%20CTR%20TUCSON%2C1501%20N%20CAMPBELL%20AVE%2C+TUCSON%2C+AZ+85724,32.240604,-110.94398999999999,BANNER FAMILY PHARMACY - UNIVERSITY MED CTR TUCSON,85724,DEA,AZ,Dec2018
"793 EASTERN BY-PASS, STE G-1, RICHMOND, KY 40475",http://maps.google.com/maps?q=BAPTIST%20HEALTH%20RICHMOND%20PROFESSIONAL%20PHARMACY%2C793%20EASTERN%20BY-PASS%2C+RICHMOND%2C+KY+40475,37.7308282,-84.2924567,BAPTIST HEALTH RICHMOND PROFESSIONAL PHARMACY,40475,DEA,KY,Dec2018
"639 W MAIN ST, BARNESVILLE, OH 43713",http://maps.google.com/maps?q=BARNESVILLE%20HOSPITAL%20ASSN%20INC%2C639%20W%20MAIN%20ST%2C+BARNESVILLE%2C+OH+43713,39.99174,-81.18784000000001,BARNESVILLE HOSPITAL ASSN INC,43713,DEA,OH,Dec2018
"243 E BROAD STREET, WESTFIELD, NJ 07090",http://maps.google.com/maps?q=BARONS%20FAMILY%20PHARMACY%20INC%2C243%20E%20BROAD%20STREET%2C+WESTFIELD%2C+NJ+07090,40.65251,-74.34749599999999,BARON'S FAMILY PHARMACY INC,7090,DEA,NJ,Dec2018
"105 N BASCOM AVE #101, SUITE #101, SAN JOSE, CA 95128",http://maps.google.com/maps?q=BASCOM%20PHARMAACY%20LLC%2C105%20N%20BASCOM%20AVE%20#101%2C+SAN%20JOSE%2C+CA+95128,37.325847100000004,-121.9327436,BASCOM PHARMAACY LLC,95128,DEA,CA,Dec2018
"12124 WEST LAKE SHORE DRIVE, BRIMLEY, MI 49715",http://maps.google.com/maps?q=BAY%20MILLS%20PHARMACY%2C12124%20WEST%20LAKE%20SHORE%20DRIVE%2C+BRIMLEY%2C+MI+49715,46.451035,-84.601456,BAY MILLS PHARMACY,49715,DEA,MI,Dec2018
"2 BAYSHORE PLAZA, HWY 36, ATLANTIC HIGHLANDS, NJ 07716",http://maps.google.com/maps?q=BAYSHORE%20PHARMACY%2C2%20BAYSHORE%20PLAZA%2C+ATLANTIC%20HIGHLANDS%2C+NJ+07716,40.4091349,-74.0418662,BAYSHORE PHARMACY,7716,DEA,NJ,Dec2018
"759 CHESTNUT ST, SPRINGFIELD, MA 01199",http://maps.google.com/maps?q=BAYSTATE%20MEDICAL%20CENTER%20INC%2C759%20CHESTNUT%20ST%2C+SPRINGFIELD%2C+MA+01199,42.121864,-72.60290400000001,BAYSTATE MEDICAL CENTER INC,1199,DEA,MA,Dec2018
"325 WEST LOGAN HIGHWAY, P. O. BOX 328, GARDEN CITY, UT 84028",http://maps.google.com/maps?q=BEAR%20LAKE%20COMMUNITY%20HEALTH%20CENTER%20PHARMACY%2C325%20WEST%20LOGAN%20HIGHWAY%2C+GARDEN%20CITY%2C+UT+84028,41.9471032,-111.40103329999998,BEAR LAKE COMMUNITY HEALTH CENTER PHARMACY,84028,DEA,UT,Dec2018
"3140 VILLAGE VISTA DR, SUITE 100, ERIE, CO 80516",http://maps.google.com/maps?q=BEATTIES%20HEALTH%20MART%20PHARMACY%2C3140%20VILLAGE%20VISTA%20DR%2C+ERIE%2C+CO+80516,40.001063,-105.020044,BEATTIE'S HEALTH MART PHARMACY,80516,DEA,CO,Dec2018
"98 N MAIN ST, PO BOX 1438, BEAVER, UT 84713",http://maps.google.com/maps?q=BEAVER%20DRUG%2C98%20N%20MAIN%20ST%2C+BEAVER%2C+UT+84713,38.27275,-112.64123500000001,BEAVER DRUG,84713,DEA,UT,Dec2018
"95 SPRINGBROOK AVENUE, SUITE 101, CLAYTON, NC 27520",http://maps.google.com/maps?q=BEDDINGFIELD%20DRUGS%20LLC%2C95%20SPRINGBROOK%20AVENUE%2C+CLAYTON%2C+NC+27520,35.6285305,-78.5051027,BEDDINGFIELD DRUGS LLC,27520,DEA,NC,Dec2018
"419 MAIN ST, PO BOX 66, BEDFORD, IA 50833",http://maps.google.com/maps?q=BEDFORD%20DRUG%2C419%20MAIN%20ST%2C+BEDFORD%2C+IA+50833,40.66702,-94.71925,BEDFORD DRUG,50833,DEA,IA,Dec2018
"7473 SECOR ROAD, UNIT C, LAMBERTVILLE, MI 48144",http://maps.google.com/maps?q=BEDFORD%20WELLNESS%20PHARMACY%2C7473%20SECOR%20ROAD%2C+LAMBERTVILLE%2C+MI+48144,41.751305,-83.62576,BEDFORD WELLNESS PHARMACY,48144,DEA,MI,Dec2018
"2021 N BROADWAY, KNOXVILLE, TN 37917",http://maps.google.com/maps?q=BELEW%20DRUG%2C2021%20N%20BROADWAY%2C+KNOXVILLE%2C+TN+37917,35.990140000000004,-83.92012,BELEW DRUG,37917,DEA,TN,Dec2018
"8622 ASHEVILLE HIGHWAY, KNOXVILLE, TN 37924",http://maps.google.com/maps?q=BELEW%20DRUGS%20ASHEVILLE%20HIGHWAY%20LLC%2C8622%20ASHEVILLE%20HIGHWAY%2C+KNOXVILLE%2C+TN+37924,36.025459999999995,-83.73642,BELEW DRUGS ASHEVILLE HIGHWAY LLC,37924,DEA,TN,Dec2018
"5908 WASHINGTON PIKE SUITE 102, KNOXVILLE, TN 37918",http://maps.google.com/maps?q=BELEW%20DRUGS%20WASHINGTON%20PIKE%20INC%2C5908%20WASHINGTON%20PIKE%20SUITE%20102%2C+KNOXVILLE%2C+TN+37918,36.05243,-83.87448,BELEW DRUGS WASHINGTON PIKE INC,37918,DEA,TN,Dec2018
"120 NORTH BRIDGE STREET, PO BOX 272, BELLAIRE, MI 49615",http://maps.google.com/maps?q=BELLAIRE%20PHARMACY%20INC%2C120%20%20NORTH%20BRIDGE%20STREET%2C+BELLAIRE%2C+MI+49615,44.97547,-85.20999,"BELLAIRE PHARMACY, INC",49615,DEA,MI,Dec2018
"338 WASHINGTON AVE, BELLEVILLE, NJ 07109",http://maps.google.com/maps?q=BELLEVILLE%20PHARMACY%2C338%20WASHINGTON%20AVE%2C+BELLEVILLE%2C+NJ+07109,40.791176,-74.15124499999999,BELLEVILLE PHARMACY,7109,DEA,NJ,Dec2018
"135 SOUTH MAIN STREET, WOODSFIELD, OH 43793",http://maps.google.com/maps?q=BELLWOOD%20DRUGS%2C135%20SOUTH%20MAIN%20STREET%2C+WOODSFIELD%2C+OH+43793,39.76185,-81.11633,BELLWOOD DRUGS,43793,DEA,OH,Dec2018
"DBA MORRISTOWN PHCY, 66840 BELMONT-MORRISTOWN RD, BELMONT, OH 43718",http://maps.google.com/maps?q=BELMONT%20CO%20HLTH%20SERVICES%2CDBA%20MORRISTOWN%20PHCY%2C+BELMONT%2C+OH+43718,40.0643167,-81.0564553,BELMONT CO HLTH SERVICES,43718,DEA,OH,Dec2018
"1969 WEST HART RD, BELOIT, WI 53511",http://maps.google.com/maps?q=BELOIT%20HEALTH%20SYSTEM%2C1969%20WEST%20HART%20RD%2C+BELOIT%2C+WI+53511,42.54675,-89.00771999999999,BELOIT HEALTH SYSTEM,53511,DEA,WI,Dec2018
"500 15TH AVENUE SOUTH, SUITE #2, GREAT FALLS, MT 59405",http://maps.google.com/maps?q=BENEFIS%20AMBULATORY%20PHARMACY%2C500%2015TH%20AVENUE%20SOUTH%2C+GREAT%20FALLS%2C+MT+59405,47.499653,-111.28168500000001,BENEFIS AMBULATORY PHARMACY,59405,DEA,MT,Dec2018
"229 S. 7TH STREET, ST MARIES, ID 83861",http://maps.google.com/maps?q=BENEWAH%20COMMUNITY%20HOSPITAL%2C229%20S.%207TH%20STREET%2C+ST%20MARIES%2C+ID+83861,47.314938,-116.56671999999999,BENEWAH COMMUNITY HOSPITAL,83861,DEA,ID,Dec2018
"990 SOUTH 8TH AVE, POCATELLO, ID 83209",http://maps.google.com/maps?q=BENGAL%20PHARMACY%2C990%20SOUTH%208TH%20AVE%2C+POCATELLO%2C+ID+83209,42.861835,-112.43278000000001,BENGAL PHARMACY,83209,DEA,ID,Dec2018
"REMOTE PHARMACY, 551 HIGHLAND DR, ARCO, ID 83213",http://maps.google.com/maps?q=BENGAL%20PHARMACY%20%20ARCO%2CREMOTE%20PHARMACY%2C+ARCO%2C+ID+83213,43.639554,-113.295217,BENGAL PHARMACY - ARCO,83213,DEA,ID,Dec2018
"1 WEST MAIN, P.O.BOX 111, NEW HAMPTON, IA 50659",http://maps.google.com/maps?q=BENNETT%20PHARMACY%2C1%20WEST%20MAIN%2C+NEW%20HAMPTON%2C+IA+50659,43.0595016,-92.3155632,BENNETT PHARMACY,50659,DEA,IA,Dec2018
"1418 FRONT ST, BOX 549, FORT BENTON, MT 59442",http://maps.google.com/maps?q=BENTON%20PHARMACY%2C1418%20FRONT%20ST%2C+FORT%20BENTON%2C+MT+59442,47.816757,-110.66813,BENTON PHARMACY,59442,DEA,MT,Dec2018
"3500 EAST BROADWAY, LONG BEACH, CA 90803",http://maps.google.com/maps?q=BENZER%20CA%20LLC%2C3500%20EAST%20BROADWAY%2C+LONG%20BEACH%2C+CA+90803,33.764435,-118.15127,BENZER CA1 LLC,90803,DEA,CA,Dec2018
"32733 EILAND BLVD SUITE 103, WESLEY CHAPEL, FL 33545",http://maps.google.com/maps?q=BENZER%20FL%20%20LLC%2C32733%20EILAND%20BLVD%20SUITE%20103%2C+WESLEY%20CHAPEL%2C+FL+33545,28.220227,-82.246984,BENZER FL 12 LLC,33545,DEA,FL,Dec2018
"5908 BRECKENRIDGE PARKWAY, TAMPA, FL 33610",http://maps.google.com/maps?q=BENZER%20FL%20%20LLC%2C5908%20BRECKENRIDGE%20PARKWAY%2C+TAMPA%2C+FL+33610,28.007247999999997,-82.35795999999999,BENZER FL 13 LLC,33610,DEA,FL,Dec2018
"700 1ST ST S, SUITE 1, WINTER HAVEN, FL 33880",http://maps.google.com/maps?q=BENZER%20FL%20%20LLC%2C700%201ST%20ST%20S%2C%20SUITE%201%2C+WINTER%20HAVEN%2C+FL+33880,28.018063,-81.72679000000001,BENZER FL 14 LLC,33880,DEA,FL,Dec2018
"11509 E MARTIN LUTHER KING JR BLVD, MANGO, FL 33550",http://maps.google.com/maps?q=BENZER%20FL%20%20LLC%2C11509%20E%20MARTIN%20LUTHER%20KING%20JR%20BLVD%2C+MANGO%2C+FL+33550,27.980859999999996,-82.306129,BENZER FL 15 LLC,33550,DEA,FL,Dec2018
"6056 VAN DYKE RD, LUTZ, FL 33558",http://maps.google.com/maps?q=BENZER%20FL%20LLC%2C6056%20VAN%20DYKE%20RD%2C+LUTZ%2C+FL+33558,28.128048,-82.54140500000001,BENZER FL10 LLC,33558,DEA,FL,Dec2018
"2653 BRUCE B DOWNS BLVD SUITE 115, WESLEY CHAPEL, FL 33544",http://maps.google.com/maps?q=BENZER%20FL%20LLC%2C2653%20BRUCE%20B%20DOWNS%20BLVD%20SUITE%20115%2C+WESLEY%20CHAPEL%2C+FL+33544,28.194876,-82.354253,BENZER FL11 LLC,33544,DEA,FL,Dec2018
"105 S MOON AVE, BRANDON, FL 33511",http://maps.google.com/maps?q=BENZER%20FL%20LLC%2C105%20S%20MOON%20AVE%2C+BRANDON%2C+FL+33511,27.937571999999996,-82.28849,BENZER FL3 LLC,33511,DEA,FL,Dec2018
"2722 W. OLD HIGHWAY 441, MOUNT DORA, FL 32757",http://maps.google.com/maps?q=BENZER%20FL%20LLC%2C2722%20W.%20OLD%20HIGHWAY%20441%2C+MOUNT%20DORA%2C+FL+32757,28.807638,-81.672066,BENZER FL4 LLC,32757,DEA,FL,Dec2018
"500 W. GRANADA BLVD SUITE 4, ORMOND BEACH, FL 32174",http://maps.google.com/maps?q=BENZER%20FL%20LLC%2C500%20W.%20GRANADA%20BLVD%20SUITE%204%2C+ORMOND%20BEACH%2C+FL+32174,29.279863,-81.070656,BENZER FL5 LLC,32174,DEA,FL,Dec2018
"6132 MERRILL ROAD SUITE 12, JACKSONVILLE, FL 32277",http://maps.google.com/maps?q=BENZER%20FL%20LLC%2C6132%20MERRILL%20ROAD%20SUITE%2012%2C+JACKSONVILLE%2C+FL+32277,30.35176,-81.59448,BENZER FL6 LLC,32277,DEA,FL,Dec2018
"3535 US HWY 19, NEW PORT RICHEY, FL 34652",http://maps.google.com/maps?q=BENZER%20FL%20LLC%2C3535%20US%20HWY%2019%2C+NEW%20PORT%20RICHEY%2C+FL+34652,28.210303999999997,-82.73954,BENZER FL7 LLC,34652,DEA,FL,Dec2018
"6280 66TH ST N, PINELLAS PARK, FL 33781",http://maps.google.com/maps?q=BENZER%20FL%20LLC%2C6280%2066TH%20ST%20N%2C+PINELLAS%20PARK%2C+FL+33781,27.828983,-82.72848499999999,BENZER FL8 LLC,33781,DEA,FL,Dec2018
"14306 NORTH DALE MABRY HWY #D, TAMPA, FL 33618",http://maps.google.com/maps?q=BENZER%20FL%20LLC%2C14306%20NORTH%20DALE%20MABRY%20HWY%20#D%2C+TAMPA%2C+FL+33618,28.076629999999998,-82.50675,BENZER FL9 LLC,33618,DEA,FL,Dec2018
"101 NORTH WALNUT STREET, COLFAX, IA 50054",http://maps.google.com/maps?q=BENZER%20IA%20%20LLC%2C101%20NORTH%20WALNUT%20STREET%2C+COLFAX%2C+IA+50054,41.677776,-93.24543,BENZER IA 1 LLC,50054,DEA,IA,Dec2018
"2525 CANAL STREET, NEW ORLEANS, LA 70119",http://maps.google.com/maps?q=BENZER%20LA%20LLC%2C2525%20CANAL%20STREET%2C+NEW%20ORLEANS%2C+LA+70119,29.964146000000003,-90.08510600000001,BENZER LA1 LLC,70119,DEA,LA,Dec2018
"2951 E TEXAS STREET SUITE E, BOSSIER CITY, LA 71111",http://maps.google.com/maps?q=BENZER%20PHARMACY%2C2951%20E%20TEXAS%20STREET%20SUITE%20E%2C+BOSSIER%20CITY%2C+LA+71111,32.528736,-93.704254,BENZER PHARMACY,71111,DEA,LA,Dec2018
"G-3333 BEECHER ROAD, SUITE B, FLINT, MI 48532",http://maps.google.com/maps?q=BENZER%20PHARMACY%2CG-3333%20BEECHER%20ROAD%2C+FLINT%2C+MI+48532,43.0157605,-83.7438387,BENZER PHARMACY,48532,DEA,MI,Dec2018
"1250 NW 7TH STREET UNIT 101-102, MIAMI, FL 33125",http://maps.google.com/maps?q=BENZER%20PHARMACY%20FL%20LLC%2C1250%20NW%207TH%20STREET%20UNIT%20101-102%2C+MIAMI%2C+FL+33125,25.779841,-80.215939,BENZER PHARMACY FL1 LLC,33125,DEA,FL,Dec2018
"60 NE 1ST ST, POMPANO BEACH, FL 33060",http://maps.google.com/maps?q=BENZER%20PHARMACY%20FL%20LLC%2C60%20NE%201ST%20ST%2C+POMPANO%20BEACH%2C+FL+33060,26.232409999999998,-80.124725,BENZER PHARMACY FL2 LLC,33060,DEA,FL,Dec2018
"600 NORTH PICKAWAY STREET, ATTN PHARMACY, CIRCLEVILLE, OH 43113",http://maps.google.com/maps?q=BERGER%20HOSPITAL%2C600%20NORTH%20PICKAWAY%20STREET%2C+CIRCLEVILLE%2C+OH+43113,39.60921,-82.93825,BERGER HOSPITAL,43113,DEA,OH,Dec2018
"28577 SCHOENHERR ROAD, WARREN, MI 48088",http://maps.google.com/maps?q=BERKLEY%20PHARMACY%2C28577%20SCHOENHERR%20ROAD%2C+WARREN%2C+MI+48088,42.504436,-82.9873,BERKLEY PHARMACY,48088,DEA,MI,Dec2018
"329 NC HWY 801 NORTH, PLAZA I, BERMUDA RUN, NC 27006",http://maps.google.com/maps?q=BERMUDA%20RUN%20PHARMACY%2C329%20NC%20HWY%20801%20NORTH%2C+BERMUDA%20RUN%2C+NC+27006,36.010689,-80.446904,BERMUDA RUN PHARMACY,27006,DEA,NC,Dec2018
"19671 NE 23RD, HARRAH, OK 73045",http://maps.google.com/maps?q=BESTYET%20HEALTHMART%20PHARMACY%2C19671%20NE%2023RD%2C+HARRAH%2C+OK+73045,35.493072999999995,-97.18247,BESTYET HEALTHMART PHARMACY,73045,DEA,OK,Dec2018
"275 SANDWICH STREET, PLYMOUTH, MA 02360",http://maps.google.com/maps?q=BETH%20ISRAEL%20DEACONESS%20HOSPITALPLYMOUTH%20INC%2C275%20SANDWICH%20STREET%2C+PLYMOUTH%2C+MA+02360,41.944396999999995,-70.645004,"BETH ISRAEL DEACONESS HOSPITAL-PLYMOUTH, INC.",2360,DEA,MA,Dec2018
"4860 RUCKER RD #1, MONETA, VA 24121",http://maps.google.com/maps?q=BETTER%20CARE%20PHARMACY%20LLC%2C4860%20RUCKER%20RD%20#1%2C+MONETA%2C+VA+24121,37.187355,-79.61484,BETTER CARE PHARMACY LLC,24121,DEA,VA,Dec2018
"147 WEST MAIN STREET, BEULAH, ND 58523",http://maps.google.com/maps?q=BEULAH%20DRUG%2C147%20WEST%20MAIN%20STREET%2C+BEULAH%2C+ND+58523,47.263494,-101.778706,BEULAH DRUG,58523,DEA,ND,Dec2018
"C/O PHARMACY DEPT, 85 HERRICK ST, BEVERLY, MA 01915",http://maps.google.com/maps?q=BEVERLY%20HOSPITAL%2CC/O%20PHARMACY%20DEPT%2C+BEVERLY%2C+MA+01915,42.5765964,-70.8919377,BEVERLY HOSPITAL,1915,DEA,MA,Dec2018
"898 EAST MAIN ST, GREENWOOD, IN 46143",http://maps.google.com/maps?q=BHC%20VALLE%20VISTA%20HOSPITAL%20INC%2C898%20EAST%20MAIN%20ST%2C+GREENWOOD%2C+IN+46143,39.61422,-86.08655999999999,"BHC VALLE VISTA HOSPITAL, INC.",46143,DEA,IN,Dec2018
"915 1ST AVE S, STE 110, GREAT FALLS, MT 59401",http://maps.google.com/maps?q=BIG%20SKY%20MANAGED%20CARE%2C915%201ST%20AVE%20S%2C+GREAT%20FALLS%2C+MT+59401,47.5042,-111.291756,BIG SKY MANAGED CARE,59401,DEA,MT,Dec2018
"1801 E.MARCH LANE, SUITE:B280, STOCKTON, CA 95210",http://maps.google.com/maps?q=BJRX%20PHARMACY%20INC%2C1801%20E.MARCH%20LANE%2C+STOCKTON%2C+CA+95210,32.7134,-117.1231,BJRX PHARMACY INC.,95210,DEA,CA,Dec2018
"704 BLEECKER ST, UTICA, NY 13501",http://maps.google.com/maps?q=BLACK%20DRUGS%20INC%2C704%20BLEECKER%20ST%2C+UTICA%2C+NY+13501,43.098209999999995,-75.217575,BLACK DRUGS INC,13501,DEA,NY,Dec2018
"CENTER PHARMACY, 2700 DR. MARTIN LUTHER KING JR, INDIANAPOLIS, IN 46208",http://maps.google.com/maps?q=BLACKBURN%20COMMUNITY%20HEALTH%2CCENTER%20PHARMACY%2C+INDIANAPOLIS%2C+IN+46208,39.805562,-86.17165899999999,BLACKBURN COMMUNITY HEALTH,46208,DEA,IN,Dec2018
"316 PECAN ST, PO BOX 369, BLANCO, TX 78606",http://maps.google.com/maps?q=BLANCO%20PHARMACY%20%20WELLNESS%2C316%20PECAN%20ST%2C+BLANCO%2C+TX+78606,30.0969368,-98.4213912,BLANCO PHARMACY & WELLNESS,78606,DEA,TX,Dec2018
"20370 CENTRAL AVE W, BLOUNTSTOWN, FL 32424",http://maps.google.com/maps?q=BLOUNTSTOWN%20DRUG%20INC%2C20370%20CENTRAL%20AVE%20W%2C+BLOUNTSTOWN%2C+FL+32424,30.443665999999997,-85.05005799999999,BLOUNTSTOWN DRUG INC,32424,DEA,FL,Dec2018
"802 SOUTH 200 WEST, BLANDING, UT 84511",http://maps.google.com/maps?q=BLUE%20MOUNTAIN%20PHARMACY%2C802%20SOUTH%20200%20WEST%2C+BLANDING%2C+UT+84511,37.6134925,-109.48156909999999,BLUE MOUNTAIN PHARMACY,84511,DEA,UT,Dec2018
"6240 MICHIGAN AVE, DETROIT, MI 48210",http://maps.google.com/maps?q=BLUE%20PHARMACY%2C6240%20MICHIGAN%20AVE%2C+DETROIT%2C+MI+48210,42.331127,-83.11946999999999,BLUE PHARMACY,48210,DEA,MI,Dec2018
"9485 WEST COLFAX AVENUE, LAKEWOOD, CO 80215",http://maps.google.com/maps?q=BLUE%20SPRUCE%20PHARMACY%2C9485%20WEST%20COLFAX%20AVENUE%2C+LAKEWOOD%2C+CO+80215,39.740241999999995,-105.10346000000001,BLUE SPRUCE PHARMACY,80215,DEA,CO,Dec2018
"150 WAR ADMIRAL, STE 1, DANVILLE, KY 40422",http://maps.google.com/maps?q=BLUEGRASS%20DRUG%20STORE%2C150%20WAR%20ADMIRAL%2C+DANVILLE%2C+KY+40422,37.66083,-84.79469,BLUEGRASS DRUG STORE,40422,DEA,KY,Dec2018
"1128 N. MAIN ST., MADISONVILLE, KY 42431",http://maps.google.com/maps?q=BLUEGRASS%20PHARMACIES%2C1128%20N.%20MAIN%20ST.%2C+MADISONVILLE%2C+KY+42431,37.34544,-87.49814,BLUEGRASS PHARMACIES,42431,DEA,KY,Dec2018
"194 N DIVISION STREET, HESPERIA, MI 49421",http://maps.google.com/maps?q=BOBS%20DRUGS%20LLC%2C194%20N%20DIVISION%20STREET%2C+HESPERIA%2C+MI+49421,43.57159,-86.03961,BOB'S DRUGS LLC,49421,DEA,MI,Dec2018
"6900 FOREST AVENUE, SUITE 100, RICHMOND, VA 23230",http://maps.google.com/maps?q=BON%20SECOURS%20GOOD%20HEALTH%20PHARMACY%20AT%20REYNOLDS%2C6900%20FOREST%20AVENUE%2C+RICHMOND%2C+VA+23230,37.604539200000005,-77.521771,BON SECOURS GOOD HEALTH PHARMACY AT REYNOLDS,23230,DEA,VA,Dec2018
"8210 MAIN STREET, HARRISVILLE, NY 13648",http://maps.google.com/maps?q=BONAPARTE%20PHARMACY%20LLC%2C8210%20MAIN%20STREET%2C+HARRISVILLE%2C+NY+13648,44.148804,-75.31645,BONAPARTE PHARMACY LLC,13648,DEA,NY,Dec2018
"1000 OGDEN AVENUE, DOWNERS GROVE, IL 60515",http://maps.google.com/maps?q=BOND%20DRUG%20COMPANY%20OF%20ILLINOIS%20LLC%2C1000%20OGDEN%20AVENUE%2C+DOWNERS%20GROVE%2C+IL+60515,41.808884,-88.009865,"BOND DRUG COMPANY OF ILLINOIS, L.L.C.",60515,DEA,IL,Dec2018
"111 S. HALSTED STREET, CHICAGO, IL 60661",http://maps.google.com/maps?q=BOND%20DRUG%20COMPANY%20OF%20ILLINOIS%20LLC%2C111%20S.%20HALSTED%20STREET%2C+CHICAGO%2C+IL+60661,41.88022,-87.64729,"BOND DRUG COMPANY OF ILLINOIS, L.L.C.",60661,DEA,IL,Dec2018
"1311 N STATE ROUTE 48, DECATUR, IL 62526",http://maps.google.com/maps?q=BOND%20DRUG%20COMPANY%20OF%20ILLINOIS%20LLC%2C1311%20N%20STATE%20ROUTE%2048%2C+DECATUR%2C+IL+62526,39.877148,-88.93969,"BOND DRUG COMPANY OF ILLINOIS, L.L.C.",62526,DEA,IL,Dec2018
"15 N BUFFALO GROVE RD, BUFFALO GROVE, IL 60089",http://maps.google.com/maps?q=BOND%20DRUG%20COMPANY%20OF%20ILLINOIS%20LLC%2C15%20N%20BUFFALO%20GROVE%20RD%2C+BUFFALO%20GROVE%2C+IL+60089,42.153971999999996,-87.961504,"BOND DRUG COMPANY OF ILLINOIS, L.L.C.",60089,DEA,IL,Dec2018
"1525 N VETERANS PKWY, BLOOMINGTON, IL 61704",http://maps.google.com/maps?q=BOND%20DRUG%20COMPANY%20OF%20ILLINOIS%20LLC%2C1525%20N%20VETERANS%20PKWY%2C+BLOOMINGTON%2C+IL+61704,40.5021954,-88.95197370000001,"BOND DRUG COMPANY OF ILLINOIS, L.L.C.",61704,DEA,IL,Dec2018
"1633 W. 95TH STREET, CHICAGO, IL 60643",http://maps.google.com/maps?q=BOND%20DRUG%20COMPANY%20OF%20ILLINOIS%20LLC%2C1633%20W.%2095TH%20STREET%2C+CHICAGO%2C+IL+60643,41.721176,-87.664215,"BOND DRUG COMPANY OF ILLINOIS, L.L.C.",60643,DEA,IL,Dec2018
"1713 W. SPRINGFIELD, CHAMPAIGN, IL 61821",http://maps.google.com/maps?q=BOND%20DRUG%20COMPANY%20OF%20ILLINOIS%20LLC%2C1713%20W.%20SPRINGFIELD%2C+CHAMPAIGN%2C+IL+61821,40.112812,-88.27486999999999,"BOND DRUG COMPANY OF ILLINOIS, L.L.C.",61821,DEA,IL,Dec2018
"1799 DOUGLAS RD, MONTGOMERY, IL 60538",http://maps.google.com/maps?q=BOND%20DRUG%20COMPANY%20OF%20ILLINOIS%20LLC%2C1799%20DOUGLAS%20RD%2C+MONTGOMERY%2C+IL+60538,41.7225196,-88.3202551,"BOND DRUG COMPANY OF ILLINOIS, L.L.C.",60538,DEA,IL,Dec2018
"1801 INGALLS AVE, JOLIET, IL 60435",http://maps.google.com/maps?q=BOND%20DRUG%20COMPANY%20OF%20ILLINOIS%20LLC%2C1801%20INGALLS%20AVE%2C+JOLIET%2C+IL+60435,41.5444,-88.12569,"BOND DRUG COMPANY OF ILLINOIS, L.L.C.",60435,DEA,IL,Dec2018
"1811 BELVIDERE RD, WAUKEGAN, IL 60085",http://maps.google.com/maps?q=BOND%20DRUG%20COMPANY%20OF%20ILLINOIS%20LLC%2C1811%20BELVIDERE%20RD%2C+WAUKEGAN%2C+IL+60085,42.350914,-87.85436999999999,"BOND DRUG COMPANY OF ILLINOIS, L.L.C.",60085,DEA,IL,Dec2018
"1931 W CERMAK RD, CHICAGO, IL 60608",http://maps.google.com/maps?q=BOND%20DRUG%20COMPANY%20OF%20ILLINOIS%20LLC%2C1931%20W%20CERMAK%20RD%2C+CHICAGO%2C+IL+60608,41.852184,-87.6742,"BOND DRUG COMPANY OF ILLINOIS, L.L.C.",60608,DEA,IL,Dec2018
"200 E ROOSEVELT, VILLA PARK, IL 60181",http://maps.google.com/maps?q=BOND%20DRUG%20COMPANY%20OF%20ILLINOIS%20LLC%2C200%20E%20ROOSEVELT%2C+VILLA%20PARK%2C+IL+60181,41.861445,-87.97259,"BOND DRUG COMPANY OF ILLINOIS, L.L.C.",60181,DEA,IL,Dec2018
"2020 COURT STREET, PEKIN, IL 61554",http://maps.google.com/maps?q=BOND%20DRUG%20COMPANY%20OF%20ILLINOIS%20LLC%2C2020%20COURT%20STREET%2C+PEKIN%2C+IL+61554,40.559444,-89.6184,"BOND DRUG COMPANY OF ILLINOIS, L.L.C.",61554,DEA,IL,Dec2018
"206 S. WALL ST., CARBONDALE, IL 62901",http://maps.google.com/maps?q=BOND%20DRUG%20COMPANY%20OF%20ILLINOIS%20LLC%2C206%20S.%20WALL%20ST.%2C+CARBONDALE%2C+IL+62901,37.72685,-89.208626,"BOND DRUG COMPANY OF ILLINOIS, L.L.C.",62901,DEA,IL,Dec2018
"20950 GOVERNORS HWY., OLYMPIA FIELDS, IL 60461",http://maps.google.com/maps?q=BOND%20DRUG%20COMPANY%20OF%20ILLINOIS%20LLC%2C20950%20GOVERNORS%20HWY.%2C+OLYMPIA%20FIELDS%2C+IL+60461,41.510222999999996,-87.71056999999999,"BOND DRUG COMPANY OF ILLINOIS, L.L.C.",60461,DEA,IL,Dec2018
"2323 CHARLES STREET, ROCKFORD, IL 61104",http://maps.google.com/maps?q=BOND%20DRUG%20COMPANY%20OF%20ILLINOIS%20LLC%2C2323%20CHARLES%20STREET%2C+ROCKFORD%2C+IL+61104,42.260727,-89.05943,"BOND DRUG COMPANY OF ILLINOIS, L.L.C.",61104,DEA,IL,Dec2018
"3201 N. BROADWAY ST., CHICAGO, IL 60657",http://maps.google.com/maps?q=BOND%20DRUG%20COMPANY%20OF%20ILLINOIS%20LLC%2C3201%20N.%20BROADWAY%20ST.%2C+CHICAGO%2C+IL+60657,41.940075,-87.64439,"BOND DRUG COMPANY OF ILLINOIS, L.L.C.",60657,DEA,IL,Dec2018
"3925 W ELM STREET, MCHENRY, IL 60050",http://maps.google.com/maps?q=BOND%20DRUG%20COMPANY%20OF%20ILLINOIS%20LLC%2C3925%20W%20ELM%20STREET%2C+MCHENRY%2C+IL+60050,42.3445,-88.27396999999999,"BOND DRUG COMPANY OF ILLINOIS, L.L.C.",60050,DEA,IL,Dec2018
"401 BELTLINE, COLLINSVILLE, IL 62234",http://maps.google.com/maps?q=BOND%20DRUG%20COMPANY%20OF%20ILLINOIS%20LLC%2C401%20BELTLINE%2C+COLLINSVILLE%2C+IL+62234,38.691006,-89.97229,"BOND DRUG COMPANY OF ILLINOIS, L.L.C.",62234,DEA,IL,Dec2018
"4343 N CENTRAL AVE, CHICAGO, IL 60634",http://maps.google.com/maps?q=BOND%20DRUG%20COMPANY%20OF%20ILLINOIS%20LLC%2C4343%20N%20CENTRAL%20AVE%2C+CHICAGO%2C+IL+60634,41.959765999999995,-87.767204,"BOND DRUG COMPANY OF ILLINOIS, L.L.C.",60634,DEA,IL,Dec2018
"466 NELSON ROAD, NEW LENOX, IL 60451",http://maps.google.com/maps?q=BOND%20DRUG%20COMPANY%20OF%20ILLINOIS%20LLC%2C466%20NELSON%20ROAD%2C+NEW%20LENOX%2C+IL+60451,41.491640000000004,-87.9843,"BOND DRUG COMPANY OF ILLINOIS, L.L.C.",60451,DEA,IL,Dec2018
"5600 W. FULLERTON, CHICAGO, IL 60639",http://maps.google.com/maps?q=BOND%20DRUG%20COMPANY%20OF%20ILLINOIS%20LLC%2C5600%20W.%20FULLERTON%2C+CHICAGO%2C+IL+60639,41.923992,-87.76605,"BOND DRUG COMPANY OF ILLINOIS, L.L.C.",60639,DEA,IL,Dec2018
"5625 N. RIDGE AVE, CHICAGO, IL 60660",http://maps.google.com/maps?q=BOND%20DRUG%20COMPANY%20OF%20ILLINOIS%20LLC%2C5625%20N.%20RIDGE%20AVE%2C+CHICAGO%2C+IL+60660,41.98442,-87.66134,"BOND DRUG COMPANY OF ILLINOIS, L.L.C.",60660,DEA,IL,Dec2018
"5890 NORTH BELT WEST, BELLEVILLE, IL 62226",http://maps.google.com/maps?q=BOND%20DRUG%20COMPANY%20OF%20ILLINOIS%20LLC%2C5890%20NORTH%20BELT%20WEST%2C+BELLEVILLE%2C+IL+62226,38.541706,-90.03674000000001,"BOND DRUG COMPANY OF ILLINOIS, L.L.C.",62226,DEA,IL,Dec2018
"63 WEST 87TH ST, NAPERVILLE, IL 60565",http://maps.google.com/maps?q=BOND%20DRUG%20COMPANY%20OF%20ILLINOIS%20LLC%2C63%20WEST%2087TH%20ST%2C+NAPERVILLE%2C+IL+60565,41.728783,-88.12653,"BOND DRUG COMPANY OF ILLINOIS, L.L.C.",60565,DEA,IL,Dec2018
"641 N CLARK ST, CHICAGO, IL 60654",http://maps.google.com/maps?q=BOND%20DRUG%20COMPANY%20OF%20ILLINOIS%20LLC%2C641%20N%20CLARK%20ST%2C+CHICAGO%2C+IL+60654,41.893634999999996,-87.63116,"BOND DRUG COMPANY OF ILLINOIS, L.L.C.",60654,DEA,IL,Dec2018
"7350 BARRINGTON RD., HANOVER PARK, IL 60133",http://maps.google.com/maps?q=BOND%20DRUG%20COMPANY%20OF%20ILLINOIS%20LLC%2C7350%20BARRINGTON%20RD.%2C+HANOVER%20PARK%2C+IL+60133,42.005542999999996,-88.14482,"BOND DRUG COMPANY OF ILLINOIS, L.L.C.",60133,DEA,IL,Dec2018
"780 WAUKEGAN RD, DEERFIELD, IL 60015",http://maps.google.com/maps?q=BOND%20DRUG%20COMPANY%20OF%20ILLINOIS%20LLC%2C780%20WAUKEGAN%20RD%2C+DEERFIELD%2C+IL+60015,42.166140000000006,-87.84543000000001,"BOND DRUG COMPANY OF ILLINOIS, L.L.C.",60015,DEA,IL,Dec2018
"9000 N. GREENWOOD AVE, NILES, IL 60714",http://maps.google.com/maps?q=BOND%20DRUG%20COMPANY%20OF%20ILLINOIS%20LLC%2C9000%20N.%20GREENWOOD%20AVE%2C+NILES%2C+IL+60714,42.04368,-87.84053,"BOND DRUG COMPANY OF ILLINOIS, L.L.C.",60714,DEA,IL,Dec2018
"118 MAIN, BOX 748, OAK CREEK, CO 80467",http://maps.google.com/maps?q=BONFIGLIO%20DRUG%20INC%2C118%20MAIN%2C%20BOX%20748%2C+OAK%20CREEK%2C+CO+80467,40.32,-106.96,BONFIGLIO DRUG INC,80467,DEA,CO,Dec2018
"AT DEERFIELD, 345 DEERFIELD ROAD, BOONE, NC 28607",http://maps.google.com/maps?q=BOONE%20DRUG%20%20HEALTH%20CARE%2CAT%20DEERFIELD%2C+BOONE%2C+NC+28607,36.199203000000004,-81.652939,BOONE DRUG & HEALTH CARE,28607,DEA,NC,Dec2018
"245 NEW MARKET CENTER, BOONE, NC 28607",http://maps.google.com/maps?q=BOONE%20DRUG%20AT%20NEW%20MARKET%2C245%20NEW%20MARKET%20CENTER%2C+BOONE%2C+NC+28607,36.21965,-81.66184,BOONE DRUG AT NEW MARKET,28607,DEA,NC,Dec2018
"903 CENTRAL AVENUE, PO BOX 233, HAWARDEN, IA 51023",http://maps.google.com/maps?q=BOOTH%20PHARMACY%20INC%2C903%20CENTRAL%20AVENUE%2C+HAWARDEN%2C+IA+51023,42.995670000000004,-96.48524499999999,BOOTH PHARMACY INC,51023,DEA,IA,Dec2018
"MENINO CAMPUS, 840 HARRISON AVE, BOSTON, MA 02118",http://maps.google.com/maps?q=BOSTON%20MEDICAL%20CENTER%2CMENINO%20CAMPUS%2C+BOSTON%2C+MA+02118,42.33481210000001,-71.0733775,BOSTON MEDICAL CENTER,2118,DEA,MA,Dec2018
"725 ALBANY STREET, PHARMACY, BOSTON, MA 02118",http://maps.google.com/maps?q=BOSTON%20MEDICAL%20CENTER%20PHARMACY%20AT%20SHAPIRO%2C725%20ALBANY%20STREET%2C+BOSTON%2C+MA+02118,42.335518,-71.0707,BOSTON MEDICAL CENTER PHARMACY AT SHAPIRO,2118,DEA,MA,Dec2018
"13081 CENTRAL AVE, PO BOX 910, BOULDER CREEK, CA 95006",http://maps.google.com/maps?q=BOULDER%20CREEK%20DRUG%20STORE%2C13081%20CENTRAL%20AVE%2C+BOULDER%20CREEK%2C+CA+95006,37.123665,-122.12175,BOULDER CREEK DRUG STORE,95006,DEA,CA,Dec2018
"326 NORTH MAIN, KAYSVILLE, UT 84037",http://maps.google.com/maps?q=BOWMANS%20PHARMACY%2C326%20NORTH%20MAIN%2C+KAYSVILLE%2C+UT+84037,41.0415119,-111.94069920000001,BOWMAN'S PHARMACY,84037,DEA,UT,Dec2018
"25 WEST MAIN STREET, P.O. BOX 556, CASTLE DALE, UT 84513",http://maps.google.com/maps?q=BOYDS%20FAMILY%20PHARMACY%2C25%20WEST%20MAIN%20STREET%2C+CASTLE%20DALE%2C+UT+84513,39.211696999999994,-111.02077,BOYDS FAMILY PHARMACY,84513,DEA,UT,Dec2018
"PHARMACY DEPT., 17 BELMONT AVE., BRATTLEBORO, VT 05301",http://maps.google.com/maps?q=BRATTLEBORO%20MEMORIAL%20HOSP%2CPHARMACY%20DEPT.%2C+BRATTLEBORO%2C+VT+05301,42.8409809,-72.56460909999998,BRATTLEBORO MEMORIAL HOSP,5301,DEA,VT,Dec2018
"662 EAST MAIN ST., FRANKFORT, KY 40601",http://maps.google.com/maps?q=BRAY%20PHARMACY%20INC%2C662%20EAST%20MAIN%20ST.%2C+FRANKFORT%2C+KY+40601,38.20298,-84.84794000000001,BRAY PHARMACY INC.,40601,DEA,KY,Dec2018
"314 WEST RUSK STREET, TYLER, TX 75701",http://maps.google.com/maps?q=BRICK%20STREET%20PHARMACY%2C314%20WEST%20RUSK%20STREET%2C+TYLER%2C+TX+75701,32.34091,-95.3034,BRICK STREET PHARMACY,75701,DEA,TX,Dec2018
"75 FRANCIS STREET, DEPT OF PHARMACY TWR L2-504, BOSTON, MA 02115",http://maps.google.com/maps?q=BRIGHAM%20AND%20WOMENS%20HOSPITAL%2C75%20FRANCIS%20STREET%2C+BOSTON%2C+MA+02115,42.3360919,-71.10670470000001,BRIGHAM AND WOMEN'S HOSPITAL,2115,DEA,MA,Dec2018
"850 BOYLSTON STREET, DELIVER TO PHARMACY DEPT, 75 F, CHESTNUT HILL, MA 02467",http://maps.google.com/maps?q=BRIGHAM%20AND%20WOMENS%20HOSPITAL%2C850%20BOYLSTON%20STREET%2C+CHESTNUT%20HILL%2C+MA+02467,42.3360919,-71.10670470000001,BRIGHAM AND WOMEN'S HOSPITAL,2467,DEA,MA,Dec2018
"908 N. MAIN, PO BOX 788, BRIGHTON, IL 62012",http://maps.google.com/maps?q=BRIGHTON%20PHARMACY%2C908%20N.%20MAIN%2C+BRIGHTON%2C+IL+62012,39.047676,-90.1413,BRIGHTON PHARMACY,62012,DEA,IL,Dec2018
"217 W BROAD ST, SAINT PAULS, NC 28384",http://maps.google.com/maps?q=BRISSON%20DRUGS%20INC%2C217%20W%20BROAD%20ST%2C+SAINT%20PAULS%2C+NC+28384,34.806805,-78.97276,BRISSON DRUGS INC,28384,DEA,NC,Dec2018
"1300 WEST LEHIGH AVENUE, SUITE 102, PHILADELPHIA, PA 19132",http://maps.google.com/maps?q=BROAD%20%20LEHIGH%20PHARMACY%2C1300%20WEST%20LEHIGH%20AVENUE%2C+PHILADELPHIA%2C+PA+19132,39.993652000000004,-75.152435,BROAD & LEHIGH PHARMACY,19132,DEA,PA,Dec2018
"1115 W BROAD STREET, CHESANING, MI 48616",http://maps.google.com/maps?q=BROAD%20STREET%20PHARMACY%2C1115%20W%20BROAD%20STREET%2C+CHESANING%2C+MI+48616,43.18614,-84.12741,BROAD STREET PHARMACY,48616,DEA,MI,Dec2018
"1365 MAIN STREET, BROCKWAY, PA 15824",http://maps.google.com/maps?q=BROCKWAY%20DRUG%20COMPANY%20INC%2C1365%20MAIN%20STREET%2C+BROCKWAY%2C+PA+15824,41.24695,-78.7871,BROCKWAY DRUG COMPANY INC,15824,DEA,PA,Dec2018
"363 FREMONT ST., SUITE 111, BATTLE CREEK, MI 49017",http://maps.google.com/maps?q=BRONSON%20BATTLE%20CREEK%20OUTPATIENT%20PHARMACY%2C363%20FREMONT%20ST.%2C+BATTLE%20CREEK%2C+MI+49017,42.333335999999996,-85.17751,BRONSON BATTLE CREEK OUTPATIENT PHARMACY,49017,DEA,MI,Dec2018
"80 PONCE DE LEON BLVD, BROOKSVILLE, FL 34601",http://maps.google.com/maps?q=BROOKSVILLE%20DRUGS%20INC%2C80%20PONCE%20DE%20LEON%20BLVD%2C+BROOKSVILLE%2C+FL+34601,28.554077000000003,-82.397382,"BROOKSVILLE DRUGS, INC.",34601,DEA,FL,Dec2018
"225 MAIN STREET, P.O. BOX 308, UNADILLA, NY 13849",http://maps.google.com/maps?q=BROWNS%20PHARMACY%2C225%20MAIN%20STREET%2C+UNADILLA%2C+NY+13849,42.32522,-75.31285,BROWN'S PHARMACY,13849,DEA,NY,Dec2018
"308 WESTWOOD PLAZA A-250, LOS ANGELES, CA 90095",http://maps.google.com/maps?q=BRUIN%20HEALTH%20PHARMACY%2C308%20WESTWOOD%20PLAZA%20A-250%2C+LOS%20ANGELES%2C+CA+90095,34.0725,-118.4449,BRUIN HEALTH PHARMACY,90095,DEA,CA,Dec2018
"192 VILLAGE DRIVE, JACKSONVILLE, NC 28546",http://maps.google.com/maps?q=BRYNN%20MARR%20HOSPITAL%2C192%20VILLAGE%20DRIVE%2C+JACKSONVILLE%2C+NC+28546,34.747078,-77.37451999999999,BRYNN MARR HOSPITAL,28546,DEA,NC,Dec2018
"203 RAILROAD ST., BUILDING 2, SUITE B, BUDA, TX 78610",http://maps.google.com/maps?q=BUDA%20DRUG%20STORE%2C203%20RAILROAD%20ST.%2C+BUDA%2C+TX+78610,30.081204999999997,-97.84241,BUDA DRUG STORE,78610,DEA,TX,Dec2018
"2015 LIBRARY CIRCLE, #102, GRAND FORKS, ND 58201",http://maps.google.com/maps?q=BUDGET%20DRUG%2C2015%20LIBRARY%20CIRCLE%2C%20#102%2C+GRAND%20FORKS%2C+ND+58201,47.900085,-97.04963000000001,BUDGET DRUG,58201,DEA,ND,Dec2018
"403 HWY 24 S, PO BOX 1670, BUENA VISTA, CO 81211",http://maps.google.com/maps?q=BUENA%20VISTA%20DRUG%20DBA%2C403%20HWY%2024%20S%2C+BUENA%20VISTA%2C+CO+81211,38.8447546,-106.13414840000002,BUENA VISTA DRUG (DBA),81211,DEA,CO,Dec2018
"13355 DIX TOLEDO ROAD, SOUTHGATE, MI 48195",http://maps.google.com/maps?q=BYRON%20DRUGS%2C13355%20DIX%20TOLEDO%20ROAD%2C+SOUTHGATE%2C+MI+48195,42.210598,-83.19739,BYRON DRUGS,48195,DEA,MI,Dec2018
"1515 NORTH 400 EAST, SUITE 104, NORTH LOGAN, UT 84341",http://maps.google.com/maps?q=CACHE%20VALLEY%20COMMUNITY%20HEALTH%20CENTER%20PHARMACY%2C1515%20NORTH%20400%20EAST%2C+NORTH%20LOGAN%2C+UT+84341,41.759228,-111.823975,CACHE VALLEY COMMUNITY HEALTH CENTER PHARMACY,84341,DEA,UT,Dec2018
"108 NORTH MITCHELL, CADILLAC, MI 49601",http://maps.google.com/maps?q=CADILLAC%20FAMILY%20PHARMACY%20LLC%2C108%20NORTH%20MITCHELL%2C+CADILLAC%2C+MI+49601,44.250458,-85.39950999999999,"CADILLAC FAMILY PHARMACY, LLC",49601,DEA,MI,Dec2018
"HEALTH SERVICES PHARMACY, BLDG #27, SAN LUIS OBISPO, CA 93407",http://maps.google.com/maps?q=CALIF%20POLYTECHNIC%20STATE%20UNIV%2CHEALTH%20SERVICES%20PHARMACY%2C+SAN%20LUIS%20OBISPO%2C+CA+93407,35.9058885,-79.04949609999998,CALIF POLYTECHNIC STATE UNIV,93407,DEA,CA,Dec2018
"615 WELLS STREET, SISTERSVILLE, WV 26175",http://maps.google.com/maps?q=CAMERLIN%20ENTERPRISES%20LLC%2C615%20WELLS%20STREET%2C+SISTERSVILLE%2C+WV+26175,39.56456,-80.99506,"CAMERLIN ENTERPRISES, LLC",26175,DEA,WV,Dec2018
"17788 147TH ST SE, MONROE, WA 98272",http://maps.google.com/maps?q=CAMP%20RILEY%20DRUG%20INC%20DBA%20PHARMASAVE%20MONROE%2C17788%20147TH%20ST%20SE%2C+MONROE%2C+WA+98272,47.863792,-121.99258999999999,CAMP RILEY DRUG INC DBA PHARMASAVE MONROE,98272,DEA,WA,Dec2018
"1201 CAMINO DE SALUD NE, ALBUQUERQUE, NM 87102",http://maps.google.com/maps?q=CANCER%20CENTER%20PHARMACY%2C1201%20CAMINO%20DE%20SALUD%20NE%2C+ALBUQUERQUE%2C+NM+87102,35.095872,-106.6277341,CANCER CENTER PHARMACY,87102,DEA,NM,Dec2018
"760 CABARRUS AVE W., CONCORD, NC 28027",http://maps.google.com/maps?q=CANNON%20PHARMACY%20CONCORD%2C760%20CABARRUS%20AVE%20W.%2C+CONCORD%2C+NC+28027,35.395920000000004,-80.61033,CANNON PHARMACY CONCORD,28027,DEA,NC,Dec2018
"467 VISTA AVE, PAGE, AZ 86040",http://maps.google.com/maps?q=CANYONLANDS%20COMMUNITY%20HEALTHCARE%2C467%20VISTA%20AVE%2C+PAGE%2C+AZ+86040,36.91834,-111.46376000000001,CANYONLANDS COMMUNITY HEALTHCARE,86040,DEA,AZ,Dec2018
"27 PARK STREET, HYANNIS, MA 02601",http://maps.google.com/maps?q=CAPE%20COD%20HEALTHCARE%20PHARMACY%20AT%20CCH%2C27%20PARK%20STREET%2C+HYANNIS%2C+MA+02601,41.654377000000004,-70.273544,CAPE COD HEALTHCARE PHARMACY AT CCH,2601,DEA,MA,Dec2018
"100 TER HEUN DRIVE, FALMOUTH, MA 02540",http://maps.google.com/maps?q=CAPE%20COD%20HEALTHCARE%20PHARMACY%20AT%20FALMOUTH%20HOSPITAL%2C100%20TER%20HEUN%20DRIVE%2C+FALMOUTH%2C+MA+02540,41.564934,-70.62106,CAPE COD HEALTHCARE PHARMACY AT FALMOUTH HOSPITAL,2540,DEA,MA,Dec2018
"2800-18 RAEFORD RD, FAYETTEVILLE, NC 28303",http://maps.google.com/maps?q=CAPE%20FEAR%20DISCOUNT%20DRUG%2C2800-18%20RAEFORD%20RD%2C+FAYETTEVILLE%2C+NC+28303,35.045406,-78.92549,CAPE FEAR DISCOUNT DRUG,28303,DEA,NC,Dec2018
"5235 S COLLEGE RD, WILMINGTON, NC 28412",http://maps.google.com/maps?q=CAPE%20FEAR%20PHARMACY%2C5235%20S%20COLLEGE%20RD%2C+WILMINGTON%2C+NC+28412,34.143609999999995,-77.892624,CAPE FEAR PHARMACY,28412,DEA,NC,Dec2018
"2557 MOWRY AVE, SUITE # 11, FREMONT, CA 94538",http://maps.google.com/maps?q=CAPSULE%20PHARMACY%2C2557%20MOWRY%20AVE%2C+FREMONT%2C+CA+94538,37.556,-121.9825,CAPSULE PHARMACY,94538,DEA,CA,Dec2018
"2410 SAMPSON STREET, BLDG 237 (PHARMACY DEPARTMENT), GREAT LAKES, IL 60088",http://maps.google.com/maps?q=CAPT%20JAMES%20A%20LOVELL%20FEDERAL%20HEALTH%20CARE%20CENTER%2C2410%20SAMPSON%20STREET%2C+GREAT%20LAKES%2C+IL+60088,42.312893,-87.83964,CAPT. JAMES A. LOVELL FEDERAL HEALTH CARE CENTER,60088,DEA,IL,Dec2018
"2430 ILLINOIS STREET, BLDG 1007 (PHARMACY DEPARTMENT), GREAT LAKES, IL 60088",http://maps.google.com/maps?q=CAPT%20JAMES%20A%20LOVELL%20FEDERAL%20HEALTH%20CARE%20CENTER%2C2430%20ILLINOIS%20STREET%2C+GREAT%20LAKES%2C+IL+60088,42.308155,-87.85013599999999,CAPT. JAMES A. LOVELL FEDERAL HEALTH CARE CENTER,60088,DEA,IL,Dec2018
"2630 GREEN BAY ROAD, BLDG 3452 (PHARMACY DEPARTMENT), GREAT LAKES, IL 60088",http://maps.google.com/maps?q=CAPT%20JAMES%20A%20LOVELL%20FEDERAL%20HEALTH%20CARE%20CENTER%2C2630%20GREEN%20BAY%20ROAD%2C+GREAT%20LAKES%2C+IL+60088,42.3124475,-87.86466120000001,CAPT. JAMES A. LOVELL FEDERAL HEALTH CARE CENTER,60088,DEA,IL,Dec2018
"3440 OHIO STREET, BLDG 1017 (PHARMACY DEPARTMENT), GREAT LAKES, IL 60088",http://maps.google.com/maps?q=CAPT%20JAMES%20A%20LOVELL%20FEDERAL%20HEALTH%20CARE%20CENTER%2C3440%20OHIO%20STREET%2C+GREAT%20LAKES%2C+IL+60088,42.301228,-87.84735,CAPT. JAMES A. LOVELL FEDERAL HEALTH CARE CENTER,60088,DEA,IL,Dec2018
"1665 HIGHWAY 34E, SUITE 100, NEWNAN, GA 30265",http://maps.google.com/maps?q=CARE%20PLUS%20PHARMACY%20LLC%2C1665%20HIGHWAY%2034E%2C+NEWNAN%2C+GA+30265,33.4004359,-84.72412440000001,CARE PLUS PHARMACY LLC,30265,DEA,GA,Dec2018
"1000 E MOUNTAIN DRIVE, WILKES BARRE, PA 18711",http://maps.google.com/maps?q=CARESITE%20PHARMACY%2C1000%20E%20MOUNTAIN%20DRIVE%2C+WILKES%20BARRE%2C+PA+18711,41.254128,-75.813644,CARESITE PHARMACY,18711,DEA,PA,Dec2018
"114 LT. MICHAEL CLEARY DRIVE, DALLAS, PA 18612",http://maps.google.com/maps?q=CARESITE%20PHARMACY%2C114%20LT.%20MICHAEL%20CLEARY%20DRIVE%2C+DALLAS%2C+PA+18612,41.33100820000001,-75.9495163,CARESITE PHARMACY,18612,DEA,PA,Dec2018
"126 MARKET WAY, MOUNT POCONO, PA 18344",http://maps.google.com/maps?q=CARESITE%20PHARMACY%2C126%20MARKET%20WAY%2C+MOUNT%20POCONO%2C+PA+18344,41.1266276,-75.3741474,CARESITE PHARMACY,18344,DEA,PA,Dec2018
"132 ABIGAIL LANE, PORT MATILDA, PA 16870",http://maps.google.com/maps?q=CARESITE%20PHARMACY%2C132%20ABIGAIL%20LANE%2C+PORT%20MATILDA%2C+PA+16870,40.814253,-77.941982,CARESITE PHARMACY,16870,DEA,PA,Dec2018
"175 SOUTH WILKES-BARRE BLVD, WILKES BARRE, PA 18702",http://maps.google.com/maps?q=CARESITE%20PHARMACY%2C175%20SOUTH%20WILKES-BARRE%20BLVD%2C+WILKES%20BARRE%2C+PA+18702,41.239315000000005,-75.88344000000001,CARESITE PHARMACY,18702,DEA,PA,Dec2018
"21 GEISINGER LANE, LEWISTOWN, PA 17044",http://maps.google.com/maps?q=CARESITE%20PHARMACY%2C21%20GEISINGER%20LANE%2C+LEWISTOWN%2C+PA+17044,40.6014804,-77.5576185,CARESITE PHARMACY,17044,DEA,PA,Dec2018
"300 HIGHLAND AVENUE, LEWISTOWN, PA 17044",http://maps.google.com/maps?q=CARESITE%20PHARMACY%2C300%20HIGHLAND%20AVENUE%2C+LEWISTOWN%2C+PA+17044,40.617744,-77.56766,CARESITE PHARMACY,17044,DEA,PA,Dec2018
"300 HOLLYWOOD BLVD, ORWIGSBURG, PA 17961",http://maps.google.com/maps?q=CARESITE%20PHARMACY%2C300%20HOLLYWOOD%20BLVD%2C+ORWIGSBURG%2C+PA+17961,40.65,-76.11,CARESITE PHARMACY,17961,DEA,PA,Dec2018
"4752 SR 655 SUITE A, BIG VALLEY AREA MEDICAL CENTER, BELLEVILLE, PA 17004",http://maps.google.com/maps?q=CARESITE%20PHARMACY%2C4752%20SR%20655%20SUITE%20A%2C+BELLEVILLE%2C+PA+17004,40.6111426,-77.7100932,CARESITE PHARMACY,17004,DEA,PA,Dec2018
"531 MT. PLEASANT DRIVE, SCRANTON, PA 18503",http://maps.google.com/maps?q=CARESITE%20PHARMACY%2C531%20MT.%20PLEASANT%20DRIVE%2C+SCRANTON%2C+PA+18503,41.41837460000001,-75.67195290000001,CARESITE PHARMACY,18503,DEA,PA,Dec2018
"890 POPLAR CHURCH ROAD, SUITE 103, CAMP HILL, PA 17011",http://maps.google.com/maps?q=CARESITE%20PHARMACY%2C890%20POPLAR%20CHURCH%20ROAD%2C+CAMP%20HILL%2C+PA+17011,40.25419,-76.92408,CARESITE PHARMACY,17011,DEA,PA,Dec2018
"THE LEWIS FANELLI BUILDING, 529 TERRY REILEY WAY, POTTSVILLE, PA 17901",http://maps.google.com/maps?q=CARESITE%20PHARMACY%2CTHE%20LEWIS%20FANELLI%20BUILDING%2C+POTTSVILLE%2C+PA+17901,40.690204,-76.196525,CARESITE PHARMACY,17901,DEA,PA,Dec2018
"800 AIRPARK CENTER DRIVE STE 809, NASHVILLE, TN 37217",http://maps.google.com/maps?q=CAREZONE%20PHARMACY%20LLC%2C800%20AIRPARK%20CENTER%20DRIVE%20STE%20809%2C+NASHVILLE%2C+TN+37217,36.09487,-86.68027,CAREZONE PHARMACY LLC,37217,DEA,TN,Dec2018
"3737 W. MAIN ST, STE 106, SALEM, VA 24153",http://maps.google.com/maps?q=CARILION%20CLINIC%20PHARMACY%20SALEM%2C3737%20W.%20MAIN%20ST%2C+SALEM%2C+VA+24153,37.27756,-80.12608,CARILION CLINIC PHARMACY SALEM,24153,DEA,VA,Dec2018
"821 6TH ST, PO BOX 1497, UMATILLA, OR 97882",http://maps.google.com/maps?q=CARLSONS%20UMATILLA%20DRUG%2C821%206TH%20ST%2C+UMATILLA%2C+OR+97882,45.917408,-119.34343999999999,CARLSON'S UMATILLA DRUG,97882,DEA,OR,Dec2018
"6633 COYLE AVE, STE 1, CARMICHAEL, CA 95608",http://maps.google.com/maps?q=CARMICHAEL%20VILLAGE%20PHARMACY%2C6633%20COYLE%20AVE%2C+CARMICHAEL%2C+CA+95608,38.668015000000004,-121.31381,CARMICHAEL VILLAGE PHARMACY,95608,DEA,CA,Dec2018
"4102 BEN FRANKLIN BLVD, DURHAM, NC 27704",http://maps.google.com/maps?q=CAROLINA%20BEHAVIORAL%20CARE%20PHARMACY%2C4102%20BEN%20FRANKLIN%20BLVD%2C+DURHAM%2C+NC+27704,36.045105,-78.898,CAROLINA BEHAVIORAL CARE PHARMACY,27704,DEA,NC,Dec2018
"725 CHERRY ROAD, SUITE 103, ROCK HILL, SC 29732",http://maps.google.com/maps?q=CAROLINA%20PHARMACY%2C725%20CHERRY%20ROAD%2C+ROCK%20HILL%2C+SC+29732,34.933336,-81.04965200000001,CAROLINA PHARMACY,29732,DEA,SC,Dec2018
"810 ELM STREET EAST, HAMPTON, SC 29924",http://maps.google.com/maps?q=CAROLINA%20PHARMACY%20OF%20THE%20LOWCOUNTRY%2C810%20ELM%20STREET%20EAST%2C+HAMPTON%2C+SC+29924,32.872925,-81.11636999999999,CAROLINA PHARMACY OF THE LOWCOUNTRY,29924,DEA,SC,Dec2018
"2101 E YESLER WAY, SEATTLE, WA 98122",http://maps.google.com/maps?q=CAROLYN%20DOWNS%20FAMILY%20MEDICAL%20CENTER%20PHARMACY%2C2101%20E%20YESLER%20WAY%2C+SEATTLE%2C+WA+98122,47.601653999999996,-122.30498,CAROLYN DOWNS FAMILY MEDICAL CENTER PHARMACY,98122,DEA,WA,Dec2018
"415 MAIN, CARRINGTON, ND 58421",http://maps.google.com/maps?q=CARRINGTON%20DRUG%2C415%20MAIN%2C+CARRINGTON%2C+ND+58421,47.449566,-99.11759,CARRINGTON DRUG,58421,DEA,ND,Dec2018
"425 HIGHWAY 30 WEST STE. 140, PO BOX 157, CARROLL, IA 51401",http://maps.google.com/maps?q=CARROLL%20APOTHECARY%2C425%20HIGHWAY%2030%20WEST%20STE.%20140%2C+CARROLL%2C+IA+51401,42.066944,-94.872025,CARROLL APOTHECARY,51401,DEA,IA,Dec2018
"528 CASS ST., LA CROSSE, WI 54601",http://maps.google.com/maps?q=CASS%20ST%20PHARMACY%20GUNDERSEN%20HEALTH%20SYSTEM%2C528%20CASS%20ST.%2C+LA%20CROSSE%2C+WI+54601,43.80871,-91.24971,CASS ST PHARMACY GUNDERSEN HEALTH SYSTEM,54601,DEA,WI,Dec2018
"1370A CASTLE HILL AVE, BRONX, NY 10462",http://maps.google.com/maps?q=CASTLE%20TOPP%20PHARMACY%20CORP%2C1370A%20CASTLE%20HILL%20AVE%2C+BRONX%2C+NY+10462,40.83521,-73.85194,CASTLE TOPP PHARMACY CORP.,10462,DEA,NY,Dec2018
"100 MCGREGOR STREET, MANCHESTER, NH 03102",http://maps.google.com/maps?q=CATHOLIC%20MEDICAL%20CENTER%20HOSP%2C100%20MCGREGOR%20STREET%2C+MANCHESTER%2C+NH+03102,42.99111,-71.47379000000001,CATHOLIC MEDICAL CENTER HOSP,3102,DEA,NH,Dec2018
"ATTN: EDDIE NORRIS, 450 SOUTH 900 EAST, SUITE 150, SALT LAKE CITY, UT 84102",http://maps.google.com/maps?q=CD%20PHARMACY%20LLC%2CATTN%3A%20EDDIE%20NORRIS%2C+SALT%20LAKE%20CITY%2C+UT+84102,40.759277000000004,-111.865756,CD PHARMACY LLC,84102,DEA,UT,Dec2018
"5310 E. HIGHWAY 37, TUTTLE, OK 73089",http://maps.google.com/maps?q=CEDAR%20SPRINGS%20PHARMACY%20INC%2C5310%20E.%20HIGHWAY%2037%2C+TUTTLE%2C+OK+73089,35.290929999999996,-97.71788000000001,CEDAR SPRINGS PHARMACY INC,73089,DEA,OK,Dec2018
"215 W MAIN ST, P.O.BOX 1044, CEDAREDGE, CO 81413",http://maps.google.com/maps?q=CEDAREDGE%20PHARMACY%20INC%2C215%20W%20MAIN%20ST%2C+CEDAREDGE%2C+CO+81413,38.9005,-107.926,CEDAREDGE PHARMACY INC,81413,DEA,CO,Dec2018
"505 NORTH JACKSON STREET, JACKSON, MI 49201",http://maps.google.com/maps?q=CENTER%20FOR%20FAMILY%20HEALTH%2C505%20NORTH%20JACKSON%20STREET%2C+JACKSON%2C+MI+49201,42.252514,-84.40885,CENTER FOR FAMILY HEALTH,49201,DEA,MI,Dec2018
"1201 11TH AVE SW, MINOT, ND 58701",http://maps.google.com/maps?q=CENTER%20FOR%20FAMILY%20MEDICINE%2C1201%2011TH%20AVE%20SW%2C+MINOT%2C+ND+58701,48.224934000000005,-101.310046,CENTER FOR FAMILY MEDICINE,58701,DEA,ND,Dec2018
"312 9TH SW, WAVERLY, IA 50677",http://maps.google.com/maps?q=CENTER%20PHARMACY%2C312%209TH%20SW%2C+WAVERLY%2C+IA+50677,42.723729999999996,-92.4818,CENTER PHARMACY,50677,DEA,IA,Dec2018
"323 NORTH CENTRAL AVE, STE 101, VALLEY CITY, ND 58072",http://maps.google.com/maps?q=CENTRAL%20AVENUE%20PHARMACY%2C323%20NORTH%20CENTRAL%20AVE%2C+VALLEY%20CITY%2C+ND+58072,46.92,-98.01,CENTRAL AVENUE PHARMACY,58072,DEA,ND,Dec2018
"MAIN FLOOR SE CORNER, 133 15TH STREET, PACIFIC GROVE, CA 93950",http://maps.google.com/maps?q=CENTRAL%20AVENUE%20PHARMACY%2CMAIN%20FLOOR%20SE%20CORNER%2C+PACIFIC%20GROVE%2C+CA+93950,36.621561799999995,-121.9154298,CENTRAL AVENUE PHARMACY,93950,DEA,CA,Dec2018
"4494 MISSION STREET, SAN FRANCISCO, CA 94112",http://maps.google.com/maps?q=CENTRAL%20DRUG%20COMPANY%2C4494%20MISSION%20STREET%2C+SAN%20FRANCISCO%2C+CA+94112,37.725845,-122.43393999999999,CENTRAL DRUG COMPANY,94112,DEA,CA,Dec2018
"2424 NORTH MAIN STREET, CENTRAL LAKE, MI 49622",http://maps.google.com/maps?q=CENTRAL%20LAKE%20PHARMACY%20INC%2C2424%20NORTH%20MAIN%20STREET%2C+CENTRAL%20LAKE%2C+MI+49622,45.071290000000005,-85.264114,CENTRAL LAKE PHARMACY INC,49622,DEA,MI,Dec2018
"4 8TH ST N, NEW ROCKFORD, ND 58356",http://maps.google.com/maps?q=CENTRAL%20PHARMACY%20INC%2C4%208TH%20ST%20N%2C+NEW%20ROCKFORD%2C+ND+58356,47.680206,-99.13789,CENTRAL PHARMACY INC,58356,DEA,ND,Dec2018
"990 MAIN STREET, CARRINGTON, ND 58421",http://maps.google.com/maps?q=CENTRAL%20PHARMACY%20INC%2C990%20MAIN%20STREET%2C+CARRINGTON%2C+ND+58421,47.44954,-99.12613,CENTRAL PHARMACY INC,58421,DEA,ND,Dec2018
"3097 N. GENESEE RD, FLINT, MI 48506",http://maps.google.com/maps?q=CENTRAL%20PHARMACYEAST%20LLC%2C3097%20N.%20GENESEE%20RD%2C+FLINT%2C+MI+48506,43.050403499999994,-83.616972,"CENTRAL PHARMACY-EAST, LLC",48506,DEA,MI,Dec2018
"1806 W. LINCOLN AVENUE, YAKIMA, WA 98902",http://maps.google.com/maps?q=CENTRAL%20WASHINGTON%20FAMILY%20MEDICINE%20PHARMACY%2C1806%20W.%20LINCOLN%20AVENUE%2C+YAKIMA%2C+WA+98902,46.603429999999996,-120.533005,CENTRAL WASHINGTON FAMILY MEDICINE PHARMACY,98902,DEA,WA,Dec2018
"1201 S. MILLER STREET, WENATCHEE, WA 98801",http://maps.google.com/maps?q=CENTRAL%20WASHINGTON%20HLT%20SER%20AS%2C1201%20S.%20MILLER%20STREET%2C+WENATCHEE%2C+WA+98801,47.40788,-120.32453999999998,CENTRAL WASHINGTON HLT SER AS,98801,DEA,WA,Dec2018
"C/O PHARMACY, 214 CORNELIA STREET, PLATTSBURGH, NY 12901",http://maps.google.com/maps?q=CHAMPLAIN%20VALLEY%20PHYSICIANS%20HOSPITAL%2CC/O%20PHARMACY%2C+PLATTSBURGH%2C+NY+12901,44.69644,-73.48259300000001,CHAMPLAIN VALLEY PHYSICIANS HOSPITAL,12901,DEA,NY,Dec2018
"201 HIGHWAY 31 EAST, P O BOX 400, CHANDLER, TX 75758",http://maps.google.com/maps?q=CHANDLER%20DRUG%20LLC%2C201%20HIGHWAY%2031%20EAST%2C+CHANDLER%2C+TX+75758,32.308082,-95.479118,"CHANDLER DRUG, LLC",75758,DEA,TX,Dec2018
"1101 FILLMORE STREET, SAN FRANCISCO, CA 94115",http://maps.google.com/maps?q=CHARLIES%20DRUGS%2C1101%20FILLMORE%20STREET%2C+SAN%20FRANCISCO%2C+CA+94115,37.77961,-122.43198000000001,CHARLIES DRUGS,94115,DEA,CA,Dec2018
"PHARMACY, 21 GRAND STREET, HARTFORD, CT 06106",http://maps.google.com/maps?q=CHARTER%20OAK%20HEALTH%20CENTER%2CPHARMACY%2C+HARTFORD%2C+CT+06106,41.7577189,-72.6830985,CHARTER OAK HEALTH CENTER,6106,DEA,CT,Dec2018
"1019 112TH STREET SW, EVERETT, WA 98204",http://maps.google.com/maps?q=CHC%20OF%20SNOHOMISH%20COUNTY%2C1019%20112TH%20STREET%20SW%2C+EVERETT%2C+WA+98204,47.89646,-122.24803,CHC OF SNOHOMISH COUNTY,98204,DEA,WA,Dec2018
"EVERETT-NORTH PHARMACY, 1424 BROADWAY, EVERETT, WA 98201",http://maps.google.com/maps?q=CHC%20OF%20SNOHOMISH%20COUNTY%2CEVERETT-NORTH%20PHARMACY%2C+EVERETT%2C+WA+98201,47.998043,-122.20109,CHC OF SNOHOMISH COUNTY,98201,DEA,WA,Dec2018
"23320 HIGHWAY 99, EDMONDS, WA 98026",http://maps.google.com/maps?q=CHC%20OF%20SNOHOMISH%20COUNTY%20EDMONDS%20PHARMACY%2C23320%20HIGHWAY%2099%2C+EDMONDS%2C+WA+98026,47.78756,-122.34043,CHC OF SNOHOMISH COUNTY EDMONDS PHARMACY,98026,DEA,WA,Dec2018
"148 EAST MAIN ST, BARNESVILLE, OH 43713",http://maps.google.com/maps?q=CHEFFY%20DRUGS%20LLC%2C148%20EAST%20MAIN%20ST%2C+BARNESVILLE%2C+OH+43713,39.98803,-81.17792,CHEFFY DRUGS LLC,43713,DEA,OH,Dec2018
"CALLER BOX C-268, 1 HOSPITAL ROAD, CHEROKEE, NC 28719",http://maps.google.com/maps?q=CHEROKEE%20INDIAN%20HOSPITAL%2CCALLER%20BOX%20C-268%2C+CHEROKEE%2C+NC+28719,35.4847826,-83.32346509999999,CHEROKEE INDIAN HOSPITAL,28719,DEA,NC,Dec2018
"3135 W BROADWAY, SUITE 101, COUNCIL BLUFFS, IA 51501",http://maps.google.com/maps?q=CHI%20HEALTH%20PHARMACY%20WEST%20BROADWAY%2C3135%20W%20BROADWAY%2C+COUNCIL%20BLUFFS%2C+IA+51501,41.261936,-95.89495,CHI HEALTH PHARMACY WEST BROADWAY,51501,DEA,IA,Dec2018
"1301 GRUNDMAN BLVD, NEBRASKA CITY, NE 68410",http://maps.google.com/maps?q=CHI%20HEALTH%20ST%20MARYS%2C1301%20GRUNDMAN%20BLVD%2C+NEBRASKA%20CITY%2C+NE+68410,40.656343799999995,-95.8623967,CHI HEALTH ST MARY'S,68410,DEA,NE,Dec2018
"2224 W IOWA, CHICKASHA, OK 73018",http://maps.google.com/maps?q=CHICKASHA%20CLINIC%20PHARMACY%20LLC%2C2224%20W%20IOWA%2C+CHICKASHA%2C+OK+73018,35.047717999999996,-97.962006,"CHICKASHA CLINIC PHARMACY, LLC",73018,DEA,OK,Dec2018
"PO BOX 130, INTERSTATE 40 EXIT 102, SAN FIDEL, NM 87049",http://maps.google.com/maps?q=CHIEF%20PHARM%20SERVICES%2CPO%20BOX%20130%2C+SAN%20FIDEL%2C+NM+87049,35.075588,-107.61849299999999,CHIEF PHARM SERVICES,87049,DEA,NM,Dec2018
"4401 PENN AVENUE, PITTSBURGH, PA 15224",http://maps.google.com/maps?q=CHILDRENS%20HOSPITAL%20OF%20PITTSBURGH%2C4401%20PENN%20AVENUE%2C+PITTSBURGH%2C+PA+15224,40.46594,-79.95360600000001,CHILDRENS HOSPITAL OF PITTSBURGH,15224,DEA,PA,Dec2018
"845 JACKSON STREET, SAN FRANCISCO, CA 94133",http://maps.google.com/maps?q=CHINESE%20HOSPITAL%20ASSN%20INC%2C845%20JACKSON%20STREET%2C+SAN%20FRANCISCO%2C+CA+94133,37.79569,-122.40921999999999,CHINESE HOSPITAL ASSN INC,94133,DEA,CA,Dec2018
"386 GELLERT BLVD, SUITE A, DALY CITY, CA 94015",http://maps.google.com/maps?q=CHINESE%20HOSPITAL%20PHARMACY%2C386%20GELLERT%20BLVD%2C+DALY%20CITY%2C+CA+94015,37.663513,-122.469246,CHINESE HOSPITAL PHARMACY,94015,DEA,CA,Dec2018
"DBA CORNER PHARMACY, 102 WEST MAIN ST, BARNESVILLE, OH 43713",http://maps.google.com/maps?q=CHRISTIAN%20PHARMACY%2CDBA%20CORNER%20PHARMACY%2C+BARNESVILLE%2C+OH+43713,39.9877975,-81.1775627,CHRISTIAN PHARMACY,43713,DEA,OH,Dec2018
"465 ST. MICHAELS DR., SUITE 112, SANTA FE, NM 87505",http://maps.google.com/maps?q=CHRISTUS%20ST%20VINCENT%20OUTPATIENT%20PHARMACY%2C465%20ST.%20MICHAELS%20DR.%2C+SANTA%20FE%2C+NM+87505,35.65814,-105.948586,CHRISTUS ST. VINCENT OUTPATIENT PHARMACY,87505,DEA,NM,Dec2018
"23 COURT STREET, NEWARK, NJ 07102",http://maps.google.com/maps?q=CITIHEALTH%20RX%20INC%2C23%20COURT%20STREET%2C+NEWARK%2C+NJ+07102,40.731,-74.17595,CITIHEALTH RX INC,7102,DEA,NJ,Dec2018
"797 MILITARY STREET SOUTH, HAMILTON, AL 35570",http://maps.google.com/maps?q=CJ%20SANDLIN%20LLC%2C797%20MILITARY%20STREET%20SOUTH%2C+HAMILTON%2C+AL+35570,34.132381,-87.990071,CJ SANDLIN LLC,35570,DEA,AL,Dec2018
"501 COURT STREET, BEATRICE, NE 68310",http://maps.google.com/maps?q=CLABAUGH%20PHARMACY%20INC%2C501%20COURT%20STREET%2C+BEATRICE%2C+NE+68310,40.265865000000005,-96.76258,CLABAUGH PHARMACY INC.,68310,DEA,NE,Dec2018
"1220 MISSOURI AVENUE, JEFFERSONVILLE, IN 47130",http://maps.google.com/maps?q=CLARK%20MEMORIAL%20HOSPITAL%2C1220%20MISSOURI%20AVENUE%2C+JEFFERSONVILLE%2C+IN+47130,38.28248060000001,-85.7491194,CLARK MEMORIAL HOSPITAL,47130,DEA,IN,Dec2018
"83825 HWY 9, PO BOX 1270, ASHLAND, AL 36251",http://maps.google.com/maps?q=CLAY%20COUNTY%20HOSPITAL%2C83825%20HWY%209%2C+ASHLAND%2C+AL+36251,33.277126,-85.82254,CLAY COUNTY HOSPITAL,36251,DEA,AL,Dec2018
"929 CLAY STREET, 103, SAN FRANCISCO, CA 94108",http://maps.google.com/maps?q=CLAY%20MED%20PHARMACY%20%20MEDICAL%2C929%20CLAY%20STREET%2C%20103%2C+SAN%20FRANCISCO%2C+CA+94108,37.794014000000004,-122.40815,CLAY MED PHARMACY & MEDICAL,94108,DEA,CA,Dec2018
"12252 GOVERNOR G C PEERY HWY, PO BOX 690, POUNDING MILL, VA 24637",http://maps.google.com/maps?q=CLAYPOOL%20HILL%20PHARMACY%2C12252%20GOVERNOR%20G%20C%20PEERY%20HWY%2C+POUNDING%20MILL%2C+VA+24637,37.0638821,-81.7453508,CLAYPOOL HILL PHARMACY,24637,DEA,VA,Dec2018
"404B WASHINGTON ST, CAMBRIDGE, MD 21613",http://maps.google.com/maps?q=CLAYTONS%20PHARMACY%2C404B%20WASHINGTON%20ST%2C+CAMBRIDGE%2C+MD+21613,38.562893,-76.07738499999999,CLAYTON'S PHARMACY,21613,DEA,MD,Dec2018
"1179 VESTAL AVE, SUITE 1, BINGHAMTON, NY 13903",http://maps.google.com/maps?q=CLCRESSLER%20INC%2C1179%20VESTAL%20AVE%2C+BINGHAMTON%2C+NY+13903,42.089146,-75.91412,"CLCRESSLER, INC",13903,DEA,NY,Dec2018
"875 ROSS STREET, HEFLIN, AL 36264",http://maps.google.com/maps?q=CLEBURNE%20PHARMACY%20LLC%2C875%20ROSS%20STREET%2C+HEFLIN%2C+AL+36264,33.649236,-85.587337,"CLEBURNE PHARMACY, LLC",36264,DEA,AL,Dec2018
"3000 HOSPITAL DRIVE, BATAVIA, OH 45103",http://maps.google.com/maps?q=CLERMONT%20MERCY%20HOSPITAL%2C3000%20HOSPITAL%20DRIVE%2C+BATAVIA%2C+OH+45103,39.080859999999994,-84.14742,CLERMONT MERCY HOSPITAL,45103,DEA,OH,Dec2018
"PHARMACY DEPT, 2 COULTER ROAD, CLIFTON SPRINGS, NY 14432",http://maps.google.com/maps?q=CLIFTON%20SPRINGS%20HOSPITAL%20%20CLINIC%2CPHARMACY%20DEPT%2C+CLIFTON%20SPRINGS%2C+NY+14432,42.959702,-77.136422,CLIFTON SPRINGS HOSPITAL & CLINIC,14432,DEA,NY,Dec2018
"1001 7TH STREET NE, P.O. BOX 1100, DEVILS LAKE, ND 58301",http://maps.google.com/maps?q=CLINIC%20PHARMACY%2C1001%207TH%20STREET%20NE%2C+DEVILS%20LAKE%2C+ND+58301,48.114822600000004,-98.8512906,CLINIC PHARMACY,58301,DEA,ND,Dec2018
"2615 FAIRWAY STREET, DICKINSON, ND 58601",http://maps.google.com/maps?q=CLINIC%20PHARMACY%20INC%2C2615%20FAIRWAY%20STREET%2C+DICKINSON%2C+ND+58601,46.886585,-102.82132,CLINIC PHARMACY INC,58601,DEA,ND,Dec2018
"1567 CITY CENTER ROAD #35, MCKINLEYVILLE, CA 95519",http://maps.google.com/maps?q=CLONEYS%20PHARMACY%20INC%2C1567%20CITY%20CENTER%20ROAD%20#35%2C+MCKINLEYVILLE%2C+CA+95519,40.943115,-124.10226399999999,CLONEYS PHARMACY INC,95519,DEA,CA,Dec2018
"2515 HARRISON AVENUE, EUREKA, CA 95501",http://maps.google.com/maps?q=CLONEYS%20PHARMACY%20INC%2C2515%20HARRISON%20AVENUE%2C+EUREKA%2C+CA+95501,40.784744,-124.13961,CLONEYS PHARMACY INC,95501,DEA,CA,Dec2018
"790 SOUTH CLOVERDALE BOULEVARD, CLOVERDALE, CA 95425",http://maps.google.com/maps?q=CLOVERDALE%20PHARMACY%2C790%20SOUTH%20CLOVERDALE%20BOULEVARD%2C+CLOVERDALE%2C+CA+95425,38.792156,-123.0176,CLOVERDALE PHARMACY,95425,DEA,CA,Dec2018
"520 COBB STREET, CADILLAC, MI 49601",http://maps.google.com/maps?q=COBB%20STREET%20PHARMACY%2C520%20COBB%20STREET%2C+CADILLAC%2C+MI+49601,44.24457,-85.385315,COBB STREET PHARMACY,49601,DEA,MI,Dec2018
"211 E RAILWAY, COLEMAN, MI 48618",http://maps.google.com/maps?q=COLEMAN%20FAMILY%20PHARMACY%2C211%20E%20RAILWAY%2C+COLEMAN%2C+MI+48618,43.75618,-84.5859,COLEMAN FAMILY PHARMACY,48618,DEA,MI,Dec2018
"1454 MADISON AVENUE W, IMMOKALEE, FL 34142",http://maps.google.com/maps?q=COLLIER%20HEALTH%20SERVICES%2C1454%20MADISON%20AVENUE%20W%2C+IMMOKALEE%2C+FL+34142,26.44275,-81.433044,COLLIER HEALTH SERVICES,34142,DEA,FL,Dec2018
"1755 HERITAGE TRAIL SUITE 604, NAPLES, FL 34112",http://maps.google.com/maps?q=COLLIER%20HEALTH%20SERVICES%2C1755%20HERITAGE%20TRAIL%20SUITE%20604%2C+NAPLES%2C+FL+34112,26.138256,-81.73456999999999,COLLIER HEALTH SERVICES,34112,DEA,FL,Dec2018
"STE 120, 2373 G ROAD, GRAND JUNCTION, CO 81505",http://maps.google.com/maps?q=COLORADO%20WEST%20HEALTHCARE%20SYSTEM%2CSTE%20120%2C+GRAND%20JUNCTION%2C+CO+81505,39.1044838,-108.61502340000001,COLORADO WEST HEALTHCARE SYSTEM,81505,DEA,CO,Dec2018
"2111 EXCHANGE ST, ASTORIA, OR 97103",http://maps.google.com/maps?q=COLUMBIA%20MEMORIAL%20HOSPITAL%2C2111%20EXCHANGE%20ST%2C+ASTORIA%2C+OR+97103,46.188522,-123.81808999999998,COLUMBIA MEMORIAL HOSPITAL,97103,DEA,OR,Dec2018
"500 JEFFERSON STREET, WHITEVILLE, NC 28472",http://maps.google.com/maps?q=COLUMBUS%20REGIONAL%20HEALTHCARE%2C500%20JEFFERSON%20STREET%2C+WHITEVILLE%2C+NC+28472,34.33835,-78.69637,COLUMBUS REGIONAL HEALTHCARE,28472,DEA,NC,Dec2018
"ATTN PHCY, 2400 E SEVENTEENTH STREET, COLUMBUS, IN 47201",http://maps.google.com/maps?q=COLUMBUS%20REGIONAL%20HOSPITAL%2CATTN%20PHCY%2C+COLUMBUS%2C+IN+47201,39.2063857,-85.8796428,COLUMBUS REGIONAL HOSPITAL,47201,DEA,IN,Dec2018
"2700 BAKER STREET, MUSKEGON HEIGHTS, MI 49444",http://maps.google.com/maps?q=COMMUNITY%20CARE%20PHARMACY%2C2700%20BAKER%20STREET%2C+MUSKEGON%20HEIGHTS%2C+MI+49444,43.202805,-86.242165,COMMUNITY CARE PHARMACY,49444,DEA,MI,Dec2018
"86 FRONT STREET, HEMPSTEAD, NY 11550",http://maps.google.com/maps?q=COMMUNITY%20CARE%20RX%20INC%2C86%20FRONT%20STREET%2C+HEMPSTEAD%2C+NY+11550,40.703759999999996,-73.63337,COMMUNITY CARE RX INC.,11550,DEA,NY,Dec2018
"225 W. RTE 46, SUITE 4, TOTOWA, NJ 07512",http://maps.google.com/maps?q=COMMUNITY%20CARE%20RX%20NJ%2C225%20W.%20RTE%2046%2C+TOTOWA%2C+NJ+07512,40.894764,-74.23566,COMMUNITY CARE RX NJ,7512,DEA,NJ,Dec2018
"215 13TH AVENUE SW, CLARION, IA 50525",http://maps.google.com/maps?q=COMMUNITY%20HEALTH%20CENTER%2C215%2013TH%20AVENUE%20SW%2C+CLARION%2C+IA+50525,42.720684000000006,-93.734383,COMMUNITY HEALTH CENTER,50525,DEA,IA,Dec2018
"150 TEJAS PLACE, NIPOMO, CA 93444",http://maps.google.com/maps?q=COMMUNITY%20HEALTH%20CENTERS%2C150%20TEJAS%20PLACE%2C+NIPOMO%2C+CA+93444,35.026627000000005,-120.49898,COMMUNITY HEALTH CENTERS,93444,DEA,CA,Dec2018
"23625 HOLMAN HWY, PO BOX HH, MONTEREY, CA 93940",http://maps.google.com/maps?q=COMMUNITY%20HOSPITAL%2C23625%20HOLMAN%20HWY%2C+MONTEREY%2C+CA+93940,36.579308000000005,-121.91533000000001,COMMUNITY HOSPITAL,93940,DEA,CA,Dec2018
"1822 MULBERRY ST, SCRANTON, PA 18510",http://maps.google.com/maps?q=COMMUNITY%20MED%20CTR%20PHARMACY%2C1822%20MULBERRY%20ST%2C+SCRANTON%2C+PA+18510,41.400734,-75.645905,COMMUNITY MED CTR PHARMACY,18510,DEA,PA,Dec2018
"2900 TYLER ROAD, SUITE 1890, CHRISTIANSBURG, VA 24073",http://maps.google.com/maps?q=COMMUNITY%20PHARM%20%20MED%20SUPPLY%2C2900%20TYLER%20ROAD%2C+CHRISTIANSBURG%2C+VA+24073,37.0995421,-80.50884140000001,COMMUNITY PHARM & MED SUPPLY,24073,DEA,VA,Dec2018
"1321 WEST MAIN, LAKE CITY, IA 51449",http://maps.google.com/maps?q=COMMUNITY%20PHARMACY%2C1321%20WEST%20MAIN%2C+LAKE%20CITY%2C+IA+51449,42.267272999999996,-94.74619,COMMUNITY PHARMACY,51449,DEA,IA,Dec2018
"321 MULBERRY STREET, SW, LENOIR, NC 28645",http://maps.google.com/maps?q=COMMUNITY%20PHARMACY%2C321%20MULBERRY%20STREET%2C%20SW%2C+LENOIR%2C+NC+28645,35.91106,-81.53649,COMMUNITY PHARMACY,28645,DEA,NC,Dec2018
"1634 11TH STREET, PORTSMOUTH, OH 45662",http://maps.google.com/maps?q=COMPASS%20PHARMACY%2C1634%2011TH%20STREET%2C+PORTSMOUTH%2C+OH+45662,38.73888,-82.98201,COMPASS PHARMACY,45662,DEA,OH,Dec2018
"MEDICAL CENTER BLVD, WINSTON SALEM, NC 27157",http://maps.google.com/maps?q=COMPREHENSIVE%20CANCER%20CENTER%20PHARMACY%2CMEDICAL%20CENTER%20BLVD%2C+WINSTON%20SALEM%2C+NC+27157,36.0896566,-80.2713046,COMPREHENSIVE CANCER CENTER PHARMACY,27157,DEA,NC,Dec2018
"639 CHESTNUT STREET, ASHLAND, PA 17921",http://maps.google.com/maps?q=CONCEPT%20MEDICAL%2C639%20CHESTNUT%20STREET%2C+ASHLAND%2C+PA+17921,40.783103999999994,-76.34092,CONCEPT MEDICAL,17921,DEA,PA,Dec2018
"HEALTH & HUMAN SERVICES DEPT, 35401 MISSION DRIVE, P. O. BOX 880, ST. IGNATIUS, MT 59865",http://maps.google.com/maps?q=CONFEDERATED%20SALISH%20%20KOOTENAI%20TRIBES%2CHEALTH%20&%20HUMAN%20SERVICES%20DEPT%2C+ST.%20IGNATIUS%2C+MT+59865,47.32,-114.02,CONFEDERATED SALISH & KOOTENAI TRIBES,59865,DEA,MT,Dec2018
"#5 4TH AVENUE EAST, POLSON, MT 59860",http://maps.google.com/maps?q=CONFEDERATED%20SALISH%20AND%20KOOTENAI%20TRIBES%2C#5%204TH%20AVENUE%20EAST%2C+POLSON%2C+MT+59860,47.69269,-114.162447,CONFEDERATED SALISH AND KOOTENAI TRIBES,59860,DEA,MT,Dec2018
"9605 GRAND RONDE RD, GRAND RONDE, OR 97347",http://maps.google.com/maps?q=CONFEDERATED%20TRIBES%20OF%20GRAND%20RONDE%2C9605%20GRAND%20RONDE%20RD%2C+GRAND%20RONDE%2C+OR+97347,45.073513299999995,-123.6127905,CONFEDERATED TRIBES OF GRAND RONDE,97347,DEA,OR,Dec2018
"801 7TH AVENUE, STE 1700, FORT WORTH, TX 76104",http://maps.google.com/maps?q=COOK%20CHILDRENS%20PHARMACY%2C801%207TH%20AVENUE%2C%20STE%201700%2C+FORT%20WORTH%2C+TX+76104,32.736509999999996,-97.34196,COOK CHILDREN'S PHARMACY 1,76104,DEA,TX,Dec2018
"3400 KEITH STREET, CLEVELAND, TN 37312",http://maps.google.com/maps?q=COOKES%20PHARMACY%2C3400%20KEITH%20STREET%2C+CLEVELAND%2C+TN+37312,35.19115,-84.86395,COOKE'S PHARMACY,37312,DEA,TN,Dec2018
"2010 BROOMFIELD ROAD, CLEVELAND, TN 37323",http://maps.google.com/maps?q=COOKES%20PHARMACY%2C2010%20BROOMFIELD%20ROAD%2C+CLEVELAND%2C+TN+37323,35.13105,-84.85836,COOKE'S PHARMACY #2,37323,DEA,TN,Dec2018
"2900 FRANK SCOTT PARKWAY WEST, SUITE 920-B, BELLEVILLE, IL 62223",http://maps.google.com/maps?q=COPPER%20BEND%20PHARMACY%20INC%2C2900%20FRANK%20SCOTT%20PARKWAY%20WEST%2C+BELLEVILLE%2C+IL+62223,38.511509999999994,-90.03613,COPPER BEND PHARMACY INC,62223,DEA,IL,Dec2018
"602 MAIN STREET, WOODLAND, CA 95695",http://maps.google.com/maps?q=CORNER%20DRUG%20COMPANY%2C602%20MAIN%20STREET%2C+WOODLAND%2C+CA+95695,38.677475,-121.77308000000001,CORNER DRUG COMPANY,95695,DEA,CA,Dec2018
"619 DAKOTA AVENUE, WAHPETON, ND 58075",http://maps.google.com/maps?q=CORNER%20DRUG%20STORE%20OF%20WAHPETON%20INC%2C619%20DAKOTA%20AVENUE%2C+WAHPETON%2C+ND+58075,46.26392,-96.60863499999999,CORNER DRUG STORE OF WAHPETON INC,58075,DEA,ND,Dec2018
"72 CHAMPLAIN STREET, ATTN: SUPERVISING PHARMACIST, ROUSES POINT, NY 12979",http://maps.google.com/maps?q=CORNERSTONE%20DRUG%20%20GIFT%20INC%2C72%20CHAMPLAIN%20STREET%2C+ROUSES%20POINT%2C+NY+12979,44.98279,-73.36731999999999,CORNERSTONE DRUG & GIFT INC,12979,DEA,NY,Dec2018
"1 GUTHRIE DRIVE, CORNING, NY 14830",http://maps.google.com/maps?q=CORNING%20HOSPITAL%20INC%2C1%20GUTHRIE%20DRIVE%2C+CORNING%2C+NY+14830,42.1359226,-76.9697741,CORNING HOSPITAL INC,14830,DEA,NY,Dec2018
"DBA COSTCO PHARMACY#1, 4401 4TH AVENUE SOUTH, SEATTLE, WA 98134",http://maps.google.com/maps?q=COSTCO%20WHOLESALE%20CORPORATION%2CDBA%20COSTCO%20PHARMACY#1%2C+SEATTLE%2C+WA+98134,46.8432475,-96.8884377,COSTCO WHOLESALE CORPORATION,98134,DEA,WA,Dec2018
"14216 92ND AVE NW SUITE B, GIG HARBOR, WA 98329",http://maps.google.com/maps?q=COSTLESS%20SENIOR%20SERVICES%20INC%2C14216%2092ND%20AVE%20NW%20SUITE%20B%2C+GIG%20HARBOR%2C+WA+98329,47.386925,-122.66108999999999,"COSTLESS SENIOR SERVICES, INC",98329,DEA,WA,Dec2018
"205 ORCHARD DRIVE, SISSETON, SD 57262",http://maps.google.com/maps?q=COTEAU%20DES%20PRAIRIES%20HOSPITAL%2C205%20ORCHARD%20DRIVE%2C+SISSETON%2C+SD+57262,45.657887,-97.050865,COTEAU DES PRAIRIES HOSPITAL,57262,DEA,SD,Dec2018
"HEALTH CENTER PHARMACY, 1434 S. SHELBY ST, INDIANAPOLIS, IN 46203",http://maps.google.com/maps?q=COTTAGE%20CORNER%20COMMUNITY%2CHEALTH%20CENTER%20PHARMACY%2C+INDIANAPOLIS%2C+IN+46203,39.7477023,-86.1400134,COTTAGE CORNER COMMUNITY,46203,DEA,IN,Dec2018
"411 FORTUYN RD, GRAND COULEE, WA 99133",http://maps.google.com/maps?q=COULEE%20COMMUNITY%20HOSPITAL%2C411%20FORTUYN%20RD%2C+GRAND%20COULEE%2C+WA+99133,47.94236,-119.00561,COULEE COMMUNITY HOSPITAL,99133,DEA,WA,Dec2018
"500 19TH AVE E, SEATTLE, WA 98112",http://maps.google.com/maps?q=COUNTRY%20DOCTOR%20COMMUNITY%20HEALTH%20CLINIC%20PHARMACY%2C500%2019TH%20AVE%20E%2C+SEATTLE%2C+WA+98112,47.623272,-122.30729,COUNTRY DOCTOR COMMUNITY HEALTH CLINIC PHARMACY,98112,DEA,WA,Dec2018
"1903 W. MONROE STREET, SPRINGFIELD, IL 62704",http://maps.google.com/maps?q=COUNTY%20MARKET%20PHARMACY%2C1903%20W.%20MONROE%20STREET%2C+SPRINGFIELD%2C+IL+62704,39.79968,-89.68509,COUNTY MARKET PHARMACY 228,62704,DEA,IL,Dec2018
"2710 ST FRANCIS DR, STE. 101, WATERLOO, IA 50702",http://maps.google.com/maps?q=COVENANT%20FAMILY%20PHARMACY%2C2710%20ST%20FRANCIS%20DR%2C+WATERLOO%2C+IA+50702,42.46021,-92.3442,COVENANT FAMILY PHARMACY,50702,DEA,IA,Dec2018
"17700 SE 272ND ST, STE 100, COVINGTON, WA 98042",http://maps.google.com/maps?q=COVINGTON%20MULTICARE%20CLINIC%20PHARMACY%2C17700%20SE%20272ND%20ST%2C%20%20STE%20100%2C+COVINGTON%2C+WA+98042,47.358074,-122.10493500000001,COVINGTON MULTICARE CLINIC PHARMACY,98042,DEA,WA,Dec2018
"8941 LEWIS AVENUE, TEMPERANCE, MI 48182",http://maps.google.com/maps?q=CRARY%20DRUG%2C8941%20LEWIS%20AVENUE%2C+TEMPERANCE%2C+MI+48182,41.77819,-83.568794,CRARY DRUG,48182,DEA,MI,Dec2018
"14101 N EASTERN AVE., STE A, EDMOND, OK 73013",http://maps.google.com/maps?q=CREATIVE%20CARE%20PHARMACY%20LLC%2C14101%20N%20EASTERN%20AVE.%2C%20STE%20A%2C+EDMOND%2C+OK+73013,35.613562,-97.478813,"CREATIVE CARE PHARMACY, LLC",73013,DEA,OK,Dec2018
"REGIONAL HEALTH SERVICES OF HOWARD COUNTY, 235 8TH AVENUE WEST, CRESCO, IA 52136",http://maps.google.com/maps?q=CRESCO%20FAMILY%20PHARMACY%2CREGIONAL%20HEALTH%20SERVICES%20OF%20HOWARD%20COUNTY%2C+CRESCO%2C+IA+52136,43.3813178,-92.1178939,CRESCO FAMILY PHARMACY,52136,DEA,IA,Dec2018
"390 WEST MAIN STREET, UNIT-A, CRISFIELD, MD 21817",http://maps.google.com/maps?q=CRISFIELD%20DISCOUNT%20PHARMACY%2C390%20WEST%20MAIN%20STREET%2C+CRISFIELD%2C+MD+21817,37.98195,-75.85449,CRISFIELD DISCOUNT PHARMACY,21817,DEA,MD,Dec2018
"631 16TH STREET, P.O. BOX 966, BEDFORD, IN 47421",http://maps.google.com/maps?q=CROWDERS%20UPTOWN%20DRUG%20STORE%2C631%2016TH%20STREET%2C+BEDFORD%2C+IN+47421,38.86108,-86.4799,CROWDERS UPTOWN DRUG STORE,47421,DEA,IN,Dec2018
"266 N JACKSON AVE, #8, SAN JOSE, CA 95116",http://maps.google.com/maps?q=CURE%20PHARMACY%20INC%20DBA%20JACKSON%20MEDICAL%20PHARMACY%2C266%20N%20JACKSON%20AVE%2C+SAN%20JOSE%2C+CA+95116,37.36464960000001,-121.84892269999999,CURE PHARMACY INC DBA JACKSON MEDICAL PHARMACY,95116,DEA,CA,Dec2018
"353 CROOKS AVENUE, CLIFTON, NJ 07011",http://maps.google.com/maps?q=CUREMED%20PHARMACY%2C353%20CROOKS%20AVENUE%2C+CLIFTON%2C+NJ+07011,40.8909065,-74.1458812,CUREMED PHARMACY,7011,DEA,NJ,Dec2018
"236 E JIMMIE LEEDS ROAD, SUITE C, GALLOWAY, NJ 08205",http://maps.google.com/maps?q=CUREXA%2C236%20E%20JIMMIE%20LEEDS%20ROAD%2C+GALLOWAY%2C+NJ+08205,39.4688156,-74.5038888,CUREXA,8205,DEA,NJ,Dec2018
"4665 44TH STREET SE, SUITE A-1106, GRAND RAPIDS, MI 49512",http://maps.google.com/maps?q=CURO%20PHARMACY%2C4665%2044TH%20STREET%20SE%2C+GRAND%20RAPIDS%2C+MI+49512,42.883568,-85.55034,CURO PHARMACY,49512,DEA,MI,Dec2018
"1615 W MAIN ST, SUITE B, ALBERT LEA, MN 56007",http://maps.google.com/maps?q=CURTS%20LONG%20TERM%20CARE%20PHARMACY%2C1615%20W%20MAIN%20ST%2C%20SUITE%20B%2C+ALBERT%20LEA%2C+MN+56007,43.646390000000004,-93.38924399999999,CURT'S LONG TERM CARE PHARMACY,56007,DEA,MN,Dec2018
"482 WEST NAVAJO, SUITE A, WEST LAFAYETTE, IN 47906",http://maps.google.com/maps?q=CUSTOM%20PLUS%20PHARMACY%20LLC%2C482%20WEST%20NAVAJO%2C%20SUITE%20A%2C+WEST%20LAFAYETTE%2C+IN+47906,40.45143,-86.91248,CUSTOM PLUS PHARMACY LLC,47906,DEA,IN,Dec2018
"173 W 4TH ST, KUNA, ID 83634",http://maps.google.com/maps?q=CUSTOM%20RX%20LLC%2C173%20W%204TH%20ST%2C+KUNA%2C+ID+83634,43.491676,-116.4147,CUSTOM RX LLC,83634,DEA,ID,Dec2018
"105 DAVIS STRAITS, FALMOUTH, MA 02540",http://maps.google.com/maps?q=CVS%20PHARMACY%20INC%2C105%20DAVIS%20STRAITS%2C+FALMOUTH%2C+MA+02540,41.5601785,-70.5987557,"CVS PHARMACY, INC.",2540,DEA,MA,Dec2018
"1145 KEMPTON STREET, NEW BEDFORD, MA 02740",http://maps.google.com/maps?q=CVS%20PHARMACY%20INC%2C1145%20KEMPTON%20STREET%2C+NEW%20BEDFORD%2C+MA+02740,41.6369799,-70.9565245,"CVS PHARMACY, INC.",2740,DEA,MA,Dec2018
"115 STAFFORD ST., WORCESTER, MA 01603",http://maps.google.com/maps?q=CVS%20PHARMACY%20INC%2C115%20STAFFORD%20ST.%2C+WORCESTER%2C+MA+01603,42.238577,-71.844559,"CVS PHARMACY, INC.",1603,DEA,MA,Dec2018
"12 HARVARD ST., WALTHAM, MA 02453",http://maps.google.com/maps?q=CVS%20PHARMACY%20INC%2C12%20HARVARD%20ST.%2C+WALTHAM%2C+MA+02453,42.375847,-71.24380500000001,"CVS PHARMACY, INC.",2453,DEA,MA,Dec2018
"1267 MAIN STREET, BROCKTON, MA 02301",http://maps.google.com/maps?q=CVS%20PHARMACY%20INC%2C1267%20MAIN%20STREET%2C+BROCKTON%2C+MA+02301,42.0603,-71.014336,"CVS PHARMACY, INC.",2301,DEA,MA,Dec2018
"1280 WORCESTER RD., FRAMINGHAM, MA 01702",http://maps.google.com/maps?q=CVS%20PHARMACY%20INC%2C1280%20WORCESTER%20RD.%2C+FRAMINGHAM%2C+MA+01702,42.297886,-71.44966,"CVS PHARMACY, INC.",1702,DEA,MA,Dec2018
"13-1/2 POND STREET, NEWBURYPORT, MA 01950",http://maps.google.com/maps?q=CVS%20PHARMACY%20INC%2C13-1/2%20POND%20STREET%2C+NEWBURYPORT%2C+MA+01950,42.80738,-70.872955,"CVS PHARMACY, INC.",1950,DEA,MA,Dec2018
"136 NAHATAN ST., NORWOOD, MA 02062",http://maps.google.com/maps?q=CVS%20PHARMACY%20INC%2C136%20NAHATAN%20ST.%2C+NORWOOD%2C+MA+02062,42.195,-71.20065,"CVS PHARMACY, INC.",2062,DEA,MA,Dec2018
"137 FEDERAL STREET, GREENFIELD, MA 01301",http://maps.google.com/maps?q=CVS%20PHARMACY%20INC%2C137%20FEDERAL%20STREET%2C+GREENFIELD%2C+MA+01301,42.590626,-72.59879000000001,"CVS PHARMACY, INC.",1301,DEA,MA,Dec2018
"137 SOUTH MAIN STREET, MILFORD, MA 01757",http://maps.google.com/maps?q=CVS%20PHARMACY%20INC%2C137%20SOUTH%20MAIN%20STREET%2C+MILFORD%2C+MA+01757,42.14927,-71.50702,"CVS PHARMACY, INC.",1757,DEA,MA,Dec2018
"137 WEST CENTRAL STREET, NATICK, MA 01760",http://maps.google.com/maps?q=CVS%20PHARMACY%20INC%2C137%20WEST%20CENTRAL%20STREET%2C+NATICK%2C+MA+01760,42.282641999999996,-71.37508000000001,"CVS PHARMACY, INC.",1760,DEA,MA,Dec2018
"1616 MEMORIAL DR., CHICOPEE, MA 01020",http://maps.google.com/maps?q=CVS%20PHARMACY%20INC%2C1616%20MEMORIAL%20DR.%2C+CHICOPEE%2C+MA+01020,42.200012,-72.57292,"CVS PHARMACY, INC.",1020,DEA,MA,Dec2018
"1620 PRESIDENT AVENUE, FALL RIVER, MA 02720",http://maps.google.com/maps?q=CVS%20PHARMACY%20INC%2C1620%20PRESIDENT%20AVENUE%2C+FALL%20RIVER%2C+MA+02720,41.711945,-71.126976,"CVS PHARMACY, INC.",2720,DEA,MA,Dec2018
"171 NORTH MAIN STREET, RANDOLPH, MA 02368",http://maps.google.com/maps?q=CVS%20PHARMACY%20INC%2C171%20NORTH%20MAIN%20STREET%2C+RANDOLPH%2C+MA+02368,42.16536,-71.04311,"CVS PHARMACY, INC.",2368,DEA,MA,Dec2018
"176 NORTH STREET, HYANNIS, MA 02601",http://maps.google.com/maps?q=CVS%20PHARMACY%20INC%2C176%20NORTH%20STREET%2C+HYANNIS%2C+MA+02601,41.65217,-70.28901,"CVS PHARMACY, INC.",2601,DEA,MA,Dec2018
"1815 MIDDLESEX STREET, LOWELL, MA 01851",http://maps.google.com/maps?q=CVS%20PHARMACY%20INC%2C1815%20MIDDLESEX%20STREET%2C+LOWELL%2C+MA+01851,42.634876,-71.35476,"CVS PHARMACY, INC.",1851,DEA,MA,Dec2018
"1880 OCEAN STREET, MARSHFIELD, MA 02050",http://maps.google.com/maps?q=CVS%20PHARMACY%20INC%2C1880%20OCEAN%20STREET%2C+MARSHFIELD%2C+MA+02050,42.092009999999995,-70.704475,"CVS PHARMACY, INC.",2050,DEA,MA,Dec2018
"19 DODGE ST., BEVERLY, MA 01915",http://maps.google.com/maps?q=CVS%20PHARMACY%20INC%2C19%20DODGE%20ST.%2C+BEVERLY%2C+MA+01915,42.573723,-70.89262,"CVS PHARMACY, INC.",1915,DEA,MA,Dec2018
"197 BOSTON TURNPIKE RTE 9, SHREWSBURY, MA 01545",http://maps.google.com/maps?q=CVS%20PHARMACY%20INC%2C197%20BOSTON%20TURNPIKE%20RTE%209%2C+SHREWSBURY%2C+MA+01545,42.2746817,-71.7460745,"CVS PHARMACY, INC.",1545,DEA,MA,Dec2018
"261 CHAUNCY STREET, MANSFIELD, MA 02048",http://maps.google.com/maps?q=CVS%20PHARMACY%20INC%2C261%20CHAUNCY%20STREET%2C+MANSFIELD%2C+MA+02048,42.0311065,-71.23071170000001,"CVS PHARMACY, INC.",2048,DEA,MA,Dec2018
"264 EAST MAIN STREET, MARLBORO, MA 01752",http://maps.google.com/maps?q=CVS%20PHARMACY%20INC%2C264%20EAST%20MAIN%20STREET%2C+MARLBORO%2C+MA+01752,42.351196,-71.534706,"CVS PHARMACY, INC.",1752,DEA,MA,Dec2018
"27-43 MAIN STREET, WATERTOWN, MA 02472",http://maps.google.com/maps?q=CVS%20PHARMACY%20INC%2C27-43%20MAIN%20STREET%2C+WATERTOWN%2C+MA+02472,42.366318,-71.18585,"CVS PHARMACY, INC.",2472,DEA,MA,Dec2018
"272 EAST CENTRAL STREET, ROUTE 140, FRANKLIN, MA 02038",http://maps.google.com/maps?q=CVS%20PHARMACY%20INC%2C272%20EAST%20CENTRAL%20STREET%2C%20ROUTE%20140%2C+FRANKLIN%2C+MA+02038,42.08039,-71.38544499999999,"CVS PHARMACY, INC.",2038,DEA,MA,Dec2018
"284 WINTHROP ST., TAUNTON PLZ, TAUNTON, MA 02780",http://maps.google.com/maps?q=CVS%20PHARMACY%20INC%2C284%20WINTHROP%20ST.%2C+TAUNTON%2C+MA+02780,41.889107,-71.12004,"CVS PHARMACY, INC.",2780,DEA,MA,Dec2018
"314 MAIN STREET, GARDNER, MA 01440",http://maps.google.com/maps?q=CVS%20PHARMACY%20INC%2C314%20MAIN%20STREET%2C+GARDNER%2C+MA+01440,42.57025,-71.99335500000001,"CVS PHARMACY, INC.",1440,DEA,MA,Dec2018
"336 BRIDGE ST., LOWELL, MA 01850",http://maps.google.com/maps?q=CVS%20PHARMACY%20INC%2C336%20BRIDGE%20ST.%2C+LOWELL%2C+MA+01850,42.649525,-71.30409,"CVS PHARMACY, INC.",1850,DEA,MA,Dec2018
"36 WHITE STREET, CAMBRIDGE, MA 02140",http://maps.google.com/maps?q=CVS%20PHARMACY%20INC%2C36%20WHITE%20STREET%2C+CAMBRIDGE%2C+MA+02140,42.388866,-71.11775,"CVS PHARMACY, INC.",2140,DEA,MA,Dec2018
"400 MASSACHUSETTS AVENUE, ACTON, MA 01720",http://maps.google.com/maps?q=CVS%20PHARMACY%20INC%2C400%20MASSACHUSETTS%20AVENUE%2C+ACTON%2C+MA+01720,42.474815,-71.453384,"CVS PHARMACY, INC.",1720,DEA,MA,Dec2018
"400 PARK AVE., WORCESTER, MA 01610",http://maps.google.com/maps?q=CVS%20PHARMACY%20INC%2C400%20PARK%20AVE.%2C+WORCESTER%2C+MA+01610,42.256702000000004,-71.82347,"CVS PHARMACY, INC.",1610,DEA,MA,Dec2018
"42 BEALE STREET, WOLLASTON, MA 02170",http://maps.google.com/maps?q=CVS%20PHARMACY%20INC%2C42%20BEALE%20STREET%2C+WOLLASTON%2C+MA+02170,42.26665,-71.01776,"CVS PHARMACY, INC.",2170,DEA,MA,Dec2018
"425 LOWELL AVE., HAVERHILL, MA 01832",http://maps.google.com/maps?q=CVS%20PHARMACY%20INC%2C425%20LOWELL%20AVE.%2C+HAVERHILL%2C+MA+01832,42.772804,-71.11607,"CVS PHARMACY, INC.",1832,DEA,MA,Dec2018
"474 WASHINGTON ST., WEYMOUTH, MA 02188",http://maps.google.com/maps?q=CVS%20PHARMACY%20INC%2C474%20WASHINGTON%20ST.%2C+WEYMOUTH%2C+MA+02188,42.20813,-70.95748,"CVS PHARMACY, INC.",2188,DEA,MA,Dec2018
"500 GRAFTON STREET, WORCESTER, MA 01604",http://maps.google.com/maps?q=CVS%20PHARMACY%20INC%2C500%20GRAFTON%20STREET%2C+WORCESTER%2C+MA+01604,42.250828000000006,-71.78043000000001,"CVS PHARMACY, INC.",1604,DEA,MA,Dec2018
"590 FELLSWAY, MEDFORD, MA 02155",http://maps.google.com/maps?q=CVS%20PHARMACY%20INC%2C590%20FELLSWAY%2C+MEDFORD%2C+MA+02155,42.406715000000005,-71.08219,"CVS PHARMACY, INC.",2155,DEA,MA,Dec2018
"600 STATE ST, SPRINGFIELD, MA 01109",http://maps.google.com/maps?q=CVS%20PHARMACY%20INC%2C600%20STATE%20ST%2C+SPRINGFIELD%2C+MA+01109,42.109787,-72.57208,"CVS PHARMACY, INC.",1109,DEA,MA,Dec2018
"615-621 BELMONT AVENUE, SPRINGFIELD, MA 01108",http://maps.google.com/maps?q=CVS%20PHARMACY%20INC%2C615-621%20BELMONT%20AVENUE%2C+SPRINGFIELD%2C+MA+01108,42.088091,-72.569614,"CVS PHARMACY, INC.",1108,DEA,MA,Dec2018
"626 SOUTHERN ARTERY, RTE 3A, QUINCY, MA 02169",http://maps.google.com/maps?q=CVS%20PHARMACY%20INC%2C626%20SOUTHERN%20ARTERY%2C%20RTE%203A%2C+QUINCY%2C+MA+02169,42.252691799999994,-70.9878369,"CVS PHARMACY, INC.",2169,DEA,MA,Dec2018
"68 MAIN STREET, ANDOVER, MA 01810",http://maps.google.com/maps?q=CVS%20PHARMACY%20INC%2C68%20MAIN%20STREET%2C+ANDOVER%2C+MA+01810,42.655113,-71.13956,"CVS PHARMACY, INC.",1810,DEA,MA,Dec2018
"715 MORRISSEY BOULEVARD, DORCHESTER, MA 02122",http://maps.google.com/maps?q=CVS%20PHARMACY%20INC%2C715%20MORRISSEY%20BOULEVARD%2C+DORCHESTER%2C+MA+02122,42.2973755,-71.04981219999999,"CVS PHARMACY, INC.",2122,DEA,MA,Dec2018
"8 EAST WASHINGTON STREET, NORTH ATTLEBORO, MA 02760",http://maps.google.com/maps?q=CVS%20PHARMACY%20INC%2C8%20EAST%20WASHINGTON%20STREET%2C+NORTH%20ATTLEBORO%2C+MA+02760,41.96578,-71.33919,"CVS PHARMACY, INC.",2760,DEA,MA,Dec2018
"8 PILGRIM HILL ROAD, PLYMOUTH, MA 02360",http://maps.google.com/maps?q=CVS%20PHARMACY%20INC%2C8%20PILGRIM%20HILL%20ROAD%2C+PLYMOUTH%2C+MA+02360,41.951021000000004,-70.687659,"CVS PHARMACY, INC.",2360,DEA,MA,Dec2018
"9 NELSON STREET, LEOMINSTER, MA 01453",http://maps.google.com/maps?q=CVS%20PHARMACY%20INC%2C9%20NELSON%20STREET%2C+LEOMINSTER%2C+MA+01453,42.542496,-71.76133,"CVS PHARMACY, INC.",1453,DEA,MA,Dec2018
"9451 CYPRESS LAKE DR, FORT MYERS, FL 33919",http://maps.google.com/maps?q=CYPRESS%20PHARMACY%20INC%2C9451%20CYPRESS%20LAKE%20DR%2C+FORT%20MYERS%2C+FL+33919,26.545609999999996,-81.91105,"CYPRESS PHARMACY, INC",33919,DEA,FL,Dec2018
"860 HARBOUR WAY SOUTH, SUITE E, RICHMOND, CA 94804",http://maps.google.com/maps?q=CZ%20SERVICES%2C860%20HARBOUR%20WAY%20SOUTH%2C+RICHMOND%2C+CA+94804,37.919743,-122.360054,CZ SERVICES,94804,DEA,CA,Dec2018
"1702 SOUTH UNIVERSITY DR, FARGO, ND 58103",http://maps.google.com/maps?q=DAKOTA%20CLINIC%20PHARMACY%2C1702%20SOUTH%20UNIVERSITY%20DR%2C+FARGO%2C+ND+58103,46.8534398,-96.7975721,DAKOTA CLINIC PHARMACY,58103,DEA,ND,Dec2018
"3000 32 AVENUE S, FARGO, ND 58103",http://maps.google.com/maps?q=DAKOTA%20CLINIC%20PHARMACY%20ON%20%20AVENUE%2C3000%2032%20AVENUE%20S%2C+FARGO%2C+ND+58103,46.8313929,-96.8276915,DAKOTA CLINIC PHARMACY ON 32 AVENUE,58103,DEA,ND,Dec2018
"107 S MAIN STREET, P.O. BOX 460, STANLEY, ND 58784",http://maps.google.com/maps?q=DAKOTA%20DRUG%20CO%20OF%20STANLEY%2C107%20S%20MAIN%20STREET%2C+STANLEY%2C+ND+58784,48.321358000000004,-102.39065,DAKOTA DRUG CO OF STANLEY,58784,DEA,ND,Dec2018
"1114 CENTRAL AVENUE, FORT DODGE, IA 50501",http://maps.google.com/maps?q=DANIEL%20PHARMACY%2C1114%20CENTRAL%20AVENUE%2C+FORT%20DODGE%2C+IA+50501,42.505672,-94.18332,DANIEL PHARMACY,50501,DEA,IA,Dec2018
"16 EAST MAIN ST, MASCOUTAH, IL 62258",http://maps.google.com/maps?q=DAUBER%20PHARMACY%2C16%20EAST%20MAIN%20ST%2C+MASCOUTAH%2C+IL+62258,38.490265,-89.797195,DAUBER PHARMACY,62258,DEA,IL,Dec2018
"411 W. 5TH STREET, MARYSVILLE, OH 43040",http://maps.google.com/maps?q=DAVES%20PHARMACY%2C411%20W.%205TH%20STREET%2C+MARYSVILLE%2C+OH+43040,40.23679,-83.37286999999999,DAVE'S PHARMACY,43040,DEA,OH,Dec2018
"911 SW 4TH AVENUE, CANBY, OR 97013",http://maps.google.com/maps?q=DAVES%20PRESCRIPTION%20SHOP%2C911%20SW%204TH%20AVENUE%2C+CANBY%2C+OR+97013,45.25699,-122.70131,DAVE'S PRESCRIPTION SHOP,97013,DEA,OR,Dec2018
"615 N CHESTER ST, NEW CUMBERLAND, WV 26047",http://maps.google.com/maps?q=DAVIS%20BROTHERS%20PHARMACY%2C615%20N%20CHESTER%20ST%2C+NEW%20CUMBERLAND%2C+WV+26047,40.49456,-80.60663000000001,DAVIS BROTHERS PHARMACY,26047,DEA,WV,Dec2018
"559 CAROLINA AVE STE B, CHESTER, WV 26034",http://maps.google.com/maps?q=DAVIS%20BROTHERS%20PHARMACY%20%20CHESTER%2C559%20CAROLINA%20AVE%20STE%20B%2C+CHESTER%2C+WV+26034,40.614340000000006,-80.56065,DAVIS BROTHERS PHARMACY - CHESTER,26034,DEA,WV,Dec2018
"1205 DRAKE DRIVE, SUITE E, DAVIS, CA 95616",http://maps.google.com/maps?q=DAVIS%20COMPOUNDING%20SOLUTIONS%2C1205%20DRAKE%20DRIVE%2C+DAVIS%2C+CA+95616,38.560066,-121.76337,DAVIS COMPOUNDING SOLUTIONS,95616,DEA,CA,Dec2018
"300 SOUTH PERRY STREET, ATTICA, IN 47918",http://maps.google.com/maps?q=DAVIS%20DRUGS%20LLC%2C300%20SOUTH%20PERRY%20STREET%2C+ATTICA%2C+IN+47918,40.29268,-87.2496,DAVIS DRUGS LLC,47918,DEA,IN,Dec2018
"621 BROAD ST., STORY CITY, IA 50248",http://maps.google.com/maps?q=DBA%20NUCARA%20PHARMACY%2C621%20BROAD%20ST.%2C+STORY%20CITY%2C+IA+50248,42.187096000000004,-93.5956,DBA NUCARA PHARMACY #10,50248,DEA,IA,Dec2018
"500 SECOND ST., TRAER, IA 50675",http://maps.google.com/maps?q=DBA%20NUCARA%20PHARMACY%2C500%20SECOND%20ST.%2C+TRAER%2C+IA+50675,42.193397999999995,-92.46763,DBA NUCARA PHARMACY #12,50675,DEA,IA,Dec2018
"107 W MAIN, OTTUMWA, IA 52501",http://maps.google.com/maps?q=DBA%20NUCARA%20PHARMACY%2C107%20W%20MAIN%2C+OTTUMWA%2C+IA+52501,41.018066,-92.412964,DBA NUCARA PHARMACY #16,52501,DEA,IA,Dec2018
"1150 FIFTH ST., STE. 142, CORALVILLE, IA 52241",http://maps.google.com/maps?q=DBA%20NUCARA%20PHARMACY%2C1150%20FIFTH%20ST.%2C%20STE.%20142%2C+CORALVILLE%2C+IA+52241,41.675682,-91.57999000000001,DBA NUCARA PHARMACY #2,52241,DEA,IA,Dec2018
"722 MAIN ST., ACKLEY, IA 50601",http://maps.google.com/maps?q=DBA%20NUCARA%20PHARMACY%2C722%20MAIN%20ST.%2C+ACKLEY%2C+IA+50601,42.554142,-93.05278,DBA NUCARA PHARMACY #6,50601,DEA,IA,Dec2018
"110 CENTER STREET, CONRAD, IA 50621",http://maps.google.com/maps?q=DBA%20NUCARA%20PHARMACY%2C110%20CENTER%20STREET%2C+CONRAD%2C+IA+50621,42.224514,-92.87437,DBA NUCARA PHARMACY #7,50621,DEA,IA,Dec2018
"1002 SIXTH ST., PO BOX 541, NEVADA, IA 50201",http://maps.google.com/maps?q=DBA%20NUCARA%20PHARMACY%2C1002%20SIXTH%20ST.%2C+NEVADA%2C+IA+50201,42.020752,-93.4523,DBA NUCARA PHARMACY #9,50201,DEA,IA,Dec2018
"1716 TEMPLE AVE N, FAYETTE, AL 35555",http://maps.google.com/maps?q=DEBBIES%20DRUGS%2C1716%20TEMPLE%20AVE%20N%2C+FAYETTE%2C+AL+35555,33.667618,-87.83561,DEBBIE'S DRUGS,35555,DEA,AL,Dec2018
"720 NORTH LINCOLN ST, GREENSBURG, IN 47240",http://maps.google.com/maps?q=DECATUR%20CTY%20MEMORIAL%20HOSPITAL%2C720%20NORTH%20LINCOLN%20ST%2C+GREENSBURG%2C+IN+47240,39.34308,-85.47943000000001,DECATUR CTY MEMORIAL HOSPITAL,47240,DEA,IN,Dec2018
"3833 RICHMOND AVE, STATEN ISLAND, NY 10312",http://maps.google.com/maps?q=DELCO%20DRUGS%20%20SPECIALTY%20PHARMACY%20INC%2C3833%20RICHMOND%20AVE%2C+STATEN%20ISLAND%2C+NY+10312,40.544495,-74.165405,DELCO DRUGS & SPECIALTY PHARMACY INC.,10312,DEA,NY,Dec2018
"804 SECOND STREET, SOPERTON, GA 30457",http://maps.google.com/maps?q=DENNARDS%20LTC%2C804%20SECOND%20STREET%2C+SOPERTON%2C+GA+30457,32.373744,-82.595988,DENNARD'S LTC,30457,DEA,GA,Dec2018
"301 W 6TH AVE, DENVER, CO 80204",http://maps.google.com/maps?q=DENVER%20HEALTH%20PRIMARY%20CARE%20PHARMACY%2C301%20W%206TH%20AVE%2C+DENVER%2C+CO+80204,39.72568,-104.99209599999999,DENVER HEALTH PRIMARY CARE PHARMACY,80204,DEA,CO,Dec2018
"617 THIRD ST., DUNMORE, PA 18512",http://maps.google.com/maps?q=DEPIETROS%20PHARMACY%2C617%20THIRD%20ST.%2C+DUNMORE%2C+PA+18512,41.414970000000004,-75.63416,DEPIETRO'S PHARMACY,18512,DEA,PA,Dec2018
"CARE SYSTEM, PHARMACY SERVICE, (119), 10535 HOSPITAL WAY, MATHER, CA 95655",http://maps.google.com/maps?q=DEPT%20OF%20VETERANS%20AFFAIRS%2CCARE%20SYSTEM%2C%20PHARMACY%20SERVICE%2C+MATHER%2C+CA+95655,38.5726994,-121.29637439999999,DEPT OF VETERANS AFFAIRS,95655,DEA,CA,Dec2018
"PHARMACY SERVICE (119), BLDG 778 103 BODIN CIRCLE, TRAVIS AFB, CA 94535",http://maps.google.com/maps?q=DEPT%20OF%20VETERANS%20AFFAIRS%2CPHARMACY%20SERVICE%20(119)%2C+TRAVIS%20AFB%2C+CA+94535,38.267934000000004,-121.960664,DEPT OF VETERANS AFFAIRS,94535,DEA,CA,Dec2018
"627 S 227TH ST, DES MOINES, WA 98198",http://maps.google.com/maps?q=DES%20MOINES%20PHARMACY%2C627%20S%20227TH%20ST%2C+DES%20MOINES%2C+WA+98198,47.397877,-122.32648999999999,DES MOINES PHARMACY,98198,DEA,WA,Dec2018
"1099 SUNRISE AVE, KINGMAN, AZ 86401",http://maps.google.com/maps?q=DESERT%20WEST%20PHARMACY%2C1099%20SUNRISE%20AVE%2C+KINGMAN%2C+AZ+86401,35.214954,-114.04156,DESERT WEST PHARMACY,86401,DEA,AZ,Dec2018
"DBA DILLSBORO DRUGS, 12836 NORTH STREET, DILLSBORO, IN 47018",http://maps.google.com/maps?q=DEVILLE%20PHARMACIES%2CDBA%20DILLSBORO%20DRUGS%2C+DILLSBORO%2C+IN+47018,39.017763,-85.057863,DEVILLE PHARMACIES,47018,DEA,IN,Dec2018
"1949 OAK TREE ROAD, EDISON, NJ 08820",http://maps.google.com/maps?q=DEVINES%20PHARMACY%20INC%2C1949%20OAK%20TREE%20ROAD%2C+EDISON%2C+NJ+08820,40.574020000000004,-74.36478000000001,DEVINES PHARMACY INC,8820,DEA,NJ,Dec2018
"8226 NORTH MERRIMAN ROAD, WESTLAND, MI 48185",http://maps.google.com/maps?q=DIAL%20DRUGS%2C8226%20NORTH%20MERRIMAN%20ROAD%2C+WESTLAND%2C+MI+48185,42.348286,-83.351326,DIAL DRUGS,48185,DEA,MI,Dec2018
